{
  "LanguagesInDanger": [
    {
      "lanID": 1022,
      "enName": "South Italian",
      "frName": "italien du sud",
      "esName": "napolitano-calabrés",
      "countries": "Italy",
      "countryCdeA3": "ITA",
      "isoCdes": "nap",
      "dangerLevel": "Vulnerable",
      "nbSpeakers": 7500000,
      "latitude": 40.9798,
      "longitude": 15.249
    },
    {
      "lanID": 1023,
      "enName": "Sicilian",
      "frName": "sicilien",
      "esName": "siciliano",
      "countries": "Italy",
      "countryCdeA3": "ITA",
      "isoCdes": "scn",
      "dangerLevel": "Vulnerable",
      "nbSpeakers": 5000000,
      "latitude": 37.4399,
      "longitude": 14.5019
    },
    {
      "lanID": 383,
      "enName": "Low Saxon",
      "frName": "bas-saxon",
      "esName": "bajo sajón",
      "countries": "Germany, Denmark, Netherlands, Poland, Russian Federation",
      "countryCdeA3": "DEU, DNK, NLD, POL, RUS",
      "isoCdes": "act, drt, frs, gos, nds, sdz, stl, twd, vel, wep",
      "dangerLevel": "Vulnerable",
      "nbSpeakers": 4800000,
      "latitude": 53.4029,
      "longitude": 10.3601
    },
    {
      "lanID": 335,
      "enName": "Belarusian",
      "frName": "biélorusse",
      "esName": "bielorruso",
      "countries": "Belarus, Latvia, Lithuania, Poland, Russian Federation, Ukraine",
      "countryCdeA3": "BRB, LVA, LTU, POL, RUS, UKR",
      "isoCdes": "bel",
      "dangerLevel": "Vulnerable",
      "nbSpeakers": 4000000,
      "latitude": 53.956,
      "longitude": 27.5756
    },
    {
      "lanID": 382,
      "enName": "Lombard",
      "frName": "lombard",
      "esName": "lombardo",
      "countries": "Italy, Switzerland",
      "countryCdeA3": "ITA, CHE",
      "isoCdes": "lmo",
      "dangerLevel": "Definitely endangered",
      "nbSpeakers": 3500000,
      "latitude": 45.7215,
      "longitude": 9.3273
    },
    {
      "lanID": 405,
      "enName": "Romani",
      "frName": "romani",
      "esName": "romaní",
      "countries": "Albania, Germany, Austria, Belarus, Bosnia and Herzegovina, Bulgaria, Croatia, Estonia, Finland, France, Greece, Hungary, Italy, Latvia, Lithuania, The former Yugoslav Republic of Macedonia, Netherlands, Poland, Romania, United Kingdom of Great Britain and Northern Ireland, Russian Federation, Slovakia, Slovenia, Switzerland, Czech Republic, Turkey, Ukraine, Serbia, Montenegro",
      "countryCdeA3": "ALB, DEU, AUT, BRB, BIH, BGR, HRV, EST, FIN, FRA, GRC, HUN, ITA, LVA, LTU, MKD, NLD, POL, ROU, GBR, RUS, SVK, SVN, CHE, CZE, TUR, UKR, SRB, MNE",
      "isoCdes": "rmc, rmf, rml, rmn, rmo, rmw, rmy",
      "dangerLevel": "Definitely endangered",
      "nbSpeakers": 3500000,
      "latitude": 46.3165,
      "longitude": 22.3681
    },
    {
      "lanID": 2211,
      "enName": "Yiddish (Israel)",
      "frName": "yiddish (Israël)",
      "esName": "yiddish (Israel)",
      "countries": "Israel",
      "countryCdeA3": "ISR",
      "isoCdes": "ydd",
      "dangerLevel": "Definitely endangered",
      "nbSpeakers": 3000000,
      "latitude": 32.0833,
      "longitude": 34.8333
    },
    {
      "lanID": 1586,
      "enName": "Gondi",
      "frName": "gondi",
      "esName": "gondí",
      "countries": "India",
      "countryCdeA3": "IND",
      "isoCdes": "gon",
      "dangerLevel": "Vulnerable",
      "nbSpeakers": 2713790,
      "latitude": 19.5804,
      "longitude": 80.4418
    },
    {
      "lanID": 1020,
      "enName": "Limburgian-Ripuarian",
      "frName": "francique ripuaire -limbourgeois",
      "esName": "limburgués-ripuarino",
      "countries": "Germany, Belgium, Netherlands",
      "countryCdeA3": "DEU, BEL, NLD",
      "isoCdes": "ksh, lim",
      "dangerLevel": "Vulnerable",
      "nbSpeakers": 2600000,
      "latitude": 50.7781,
      "longitude": 6.0864
    },
    {
      "lanID": 1943,
      "enName": "Quechua of Southern Bolivia",
      "frName": "quechua bolivien du sud",
      "esName": "quechua boliviano meridional",
      "countries": "Bolivia (Plurinational State of)",
      "countryCdeA3": "BOL",
      "isoCdes": "quh",
      "dangerLevel": "Vulnerable",
      "nbSpeakers": 2300000,
      "latitude": -18.0675,
      "longitude": -65.7641
    },
    {
      "lanID": 1565,
      "enName": "Kumaoni",
      "frName": "kumaoni",
      "esName": "cumauní",
      "countries": "India, Nepal",
      "countryCdeA3": "IND, NPL",
      "isoCdes": "kfy",
      "dangerLevel": "Vulnerable",
      "nbSpeakers": 2003783,
      "latitude": 29.4778,
      "longitude": 79.8486
    },
    {
      "lanID": 755,
      "enName": "Aymara",
      "frName": "aymara",
      "esName": "aymara",
      "countries": "Bolivia (Plurinational State of), Chile, Peru",
      "countryCdeA3": "BOL, CHL, PER",
      "isoCdes": "ayc, ayr",
      "dangerLevel": "Vulnerable",
      "nbSpeakers": 2000000,
      "latitude": -16.5835,
      "longitude": -68.302
    },
    {
      "lanID": 349,
      "enName": "Emilian-Romagnol",
      "frName": "émilien-romagnol",
      "esName": "emiliano",
      "countries": "Italy, San Marino",
      "countryCdeA3": "ITA, SMR",
      "isoCdes": "eml",
      "dangerLevel": "Definitely endangered",
      "nbSpeakers": 2000000,
      "latitude": 44.127,
      "longitude": 12.0739
    },
    {
      "lanID": 399,
      "enName": "Piedmontese",
      "frName": "piémontais",
      "esName": "piamontés",
      "countries": "Italy",
      "countryCdeA3": "ITA",
      "isoCdes": "pms",
      "dangerLevel": "Definitely endangered",
      "nbSpeakers": 2000000,
      "latitude": 45.2013,
      "longitude": 7.8662
    },
    {
      "lanID": 1021,
      "enName": "Venetan",
      "frName": "vénitien",
      "esName": "veneciano",
      "countries": "Croatia, Italy, Slovenia",
      "countryCdeA3": "HRV, ITA, SVN",
      "isoCdes": "vec",
      "dangerLevel": "Vulnerable",
      "nbSpeakers": 2000000,
      "latitude": 45.4601,
      "longitude": 12.1948
    },
    {
      "lanID": 1985,
      "enName": "Zazaki",
      "frName": "zazaki",
      "esName": "zaza",
      "countries": "Turkey",
      "countryCdeA3": "TUR",
      "isoCdes": "zza",
      "dangerLevel": "Vulnerable",
      "nbSpeakers": 2000000,
      "latitude": 38.8824,
      "longitude": 40.4846
    },
    {
      "lanID": 1591,
      "enName": "Kurux (India)",
      "frName": "kurux (Inde)",
      "esName": "kuruj (India)",
      "countries": "India",
      "countryCdeA3": "IND",
      "isoCdes": "kru",
      "dangerLevel": "Vulnerable",
      "nbSpeakers": 1751489,
      "latitude": 22.1467,
      "longitude": 85.2758
    },
    {
      "lanID": 2065,
      "enName": "Tamajeq",
      "frName": "tamajeq",
      "esName": "tamacheq tahoua",
      "countries": "Niger",
      "countryCdeA3": "NER",
      "isoCdes": "thz",
      "dangerLevel": "Vulnerable",
      "nbSpeakers": 1750000,
      "latitude": 17.2352,
      "longitude": 8.0859
    },
    {
      "lanID": 1585,
      "enName": "Tulu",
      "frName": "tulu",
      "esName": "tulú",
      "countries": "India",
      "countryCdeA3": "IND",
      "isoCdes": "tcy",
      "dangerLevel": "Vulnerable",
      "nbSpeakers": 1722768,
      "latitude": 12.0178,
      "longitude": 75.7067
    },
    {
      "lanID": 1556,
      "enName": "Kangdi",
      "frName": "Kangdi",
      "esName": "kangdi",
      "countries": "India",
      "countryCdeA3": "IND",
      "isoCdes": "xnr",
      "dangerLevel": "Definitely endangered",
      "nbSpeakers": 1700000,
      "latitude": 32.4356,
      "longitude": 76.1242
    },
    {
      "lanID": 410,
      "enName": "Scots",
      "frName": "scots",
      "esName": "escocés",
      "countries": "United Kingdom of Great Britain and Northern Ireland",
      "countryCdeA3": "GBR",
      "isoCdes": "sco",
      "dangerLevel": "Vulnerable",
      "nbSpeakers": 1500000,
      "latitude": 56.2189,
      "longitude": -3.7683
    },
    {
      "lanID": 1026,
      "enName": "Torlak",
      "frName": "torlak",
      "esName": "torlak",
      "countries": "Albania, Bulgaria, The former Yugoslav Republic of Macedonia, Romania, Serbia",
      "countryCdeA3": "ALB, BGR, MKD, ROU, SRB",
      "isoCdes": "bos, hrv, srp",
      "dangerLevel": "Vulnerable",
      "nbSpeakers": 1500000,
      "latitude": 42.9644,
      "longitude": 22.1374
    },
    {
      "lanID": 1476,
      "enName": "West Flemish",
      "frName": "flamand occidental",
      "esName": "flamenco occidental",
      "countries": "Belgium, France, Netherlands",
      "countryCdeA3": "BEL, FRA, NLD",
      "isoCdes": "vls, zea",
      "dangerLevel": "Vulnerable",
      "nbSpeakers": 1500000,
      "latitude": 51.0275,
      "longitude": 3.0541
    },
    {
      "lanID": 334,
      "enName": "Bashkir",
      "frName": "bachkir",
      "esName": "baskir",
      "countries": "Russian Federation",
      "countryCdeA3": "RUS",
      "isoCdes": "bak",
      "dangerLevel": "Vulnerable",
      "nbSpeakers": 1379727,
      "latitude": 54.7309,
      "longitude": 55.9863
    },
    {
      "lanID": 1067,
      "enName": "Chechen",
      "frName": "tchétchène",
      "esName": "checheno",
      "countries": "Russian Federation",
      "countryCdeA3": "RUS",
      "isoCdes": "che",
      "dangerLevel": "Vulnerable",
      "nbSpeakers": 1331844,
      "latitude": 43.1971,
      "longitude": 45.7031
    },
    {
      "lanID": 338,
      "enName": "Chuvash",
      "frName": "tchouvache",
      "esName": "chuvacho",
      "countries": "Russian Federation",
      "countryCdeA3": "RUS",
      "isoCdes": "chv",
      "dangerLevel": "Vulnerable",
      "nbSpeakers": 1325382,
      "latitude": 56.1394,
      "longitude": 47.2412
    },
    {
      "lanID": 1227,
      "enName": "Meithei",
      "frName": "meitei",
      "esName": "mitei",
      "countries": "India",
      "countryCdeA3": "IND",
      "isoCdes": "mni",
      "dangerLevel": "Vulnerable",
      "nbSpeakers": 1250000,
      "latitude": 24.7667,
      "longitude": 93.8946
    },
    {
      "lanID": 1114,
      "enName": "Tamang",
      "frName": "tamang",
      "esName": "tamang",
      "countries": "India, Nepal",
      "countryCdeA3": "IND, NPL",
      "isoCdes": "taj, tge, tmk, tsf, tdg",
      "dangerLevel": "Vulnerable",
      "nbSpeakers": 1196639,
      "latitude": 27.7365,
      "longitude": 85.6858
    },
    {
      "lanID": 1013,
      "enName": "Quechua of Cuzco",
      "frName": "quechua de Cuzco",
      "esName": "quechua cuzqueño",
      "countries": "Peru",
      "countryCdeA3": "PER",
      "isoCdes": "quz",
      "dangerLevel": "Vulnerable",
      "nbSpeakers": 1115000,
      "latitude": -13.4537,
      "longitude": -72.0098
    },
    {
      "lanID": 1024,
      "enName": "Eastern Slovak",
      "frName": "slovaque oriental",
      "esName": "eslovaco oriental",
      "countries": "Slovakia, Ukraine",
      "countryCdeA3": "SVK, UKR",
      "isoCdes": "slk",
      "dangerLevel": "Vulnerable",
      "nbSpeakers": 1000000,
      "latitude": 48.8068,
      "longitude": 21.7968
    },
    {
      "lanID": 377,
      "enName": "Ligurian",
      "frName": "ligurien",
      "esName": "ligur",
      "countries": "France, Italy, Monaco",
      "countryCdeA3": "FRA, ITA, MCO",
      "isoCdes": "lij",
      "dangerLevel": "Definitely endangered",
      "nbSpeakers": 1000000,
      "latitude": 44.5748,
      "longitude": 8.7011
    },
    {
      "lanID": 407,
      "enName": "Rusyn",
      "frName": "ruthène",
      "esName": "rutenio",
      "countries": "Hungary, Poland, Romania, Slovakia, Ukraine",
      "countryCdeA3": "HUN, POL, ROU, SVK, UKR",
      "isoCdes": "rue",
      "dangerLevel": "Vulnerable",
      "nbSpeakers": 1000000,
      "latitude": 48.4437,
      "longitude": 22.9394
    },
    {
      "lanID": 1515,
      "enName": "Talysh",
      "frName": "talysh",
      "esName": "talisí",
      "countries": "Azerbaijan, Iran (Islamic Republic of)",
      "countryCdeA3": "AZE, IRN",
      "isoCdes": "tly",
      "dangerLevel": "Vulnerable",
      "nbSpeakers": 1000000,
      "latitude": 38.814,
      "longitude": 48.6804
    },
    {
      "lanID": 1577,
      "enName": "Kui",
      "frName": "kui",
      "esName": "kui",
      "countries": "India",
      "countryCdeA3": "IND",
      "isoCdes": "kxu",
      "dangerLevel": "Vulnerable",
      "nbSpeakers": 916222,
      "latitude": 19.5908,
      "longitude": 83.9575
    },
    {
      "lanID": 1231,
      "enName": "Khasi",
      "frName": "khasi",
      "esName": "jasí",
      "countries": "India",
      "countryCdeA3": "IND",
      "isoCdes": "kha",
      "dangerLevel": "Vulnerable",
      "nbSpeakers": 912000,
      "latitude": 25.691,
      "longitude": 91.8676
    },
    {
      "lanID": 1229,
      "enName": "Bodo",
      "frName": "bodo",
      "esName": "bodo",
      "countries": "India",
      "countryCdeA3": "IND",
      "isoCdes": "brx",
      "dangerLevel": "Vulnerable",
      "nbSpeakers": 900000,
      "latitude": 26.7554,
      "longitude": 92.8674
    },
    {
      "lanID": 337,
      "enName": "Campidanese",
      "frName": "campidanien",
      "esName": "sardo campidanés",
      "countries": "Italy",
      "countryCdeA3": "ITA",
      "isoCdes": "sro",
      "dangerLevel": "Definitely endangered",
      "nbSpeakers": 900000,
      "latitude": 39.2991,
      "longitude": 8.9868
    },
    {
      "lanID": 1803,
      "enName": "K'iche' (Guatemala)",
      "frName": "k’iche' (Guatemala)",
      "esName": "quiché (Guatemala)",
      "countries": "Guatemala",
      "countryCdeA3": "GTM",
      "isoCdes": "quc",
      "dangerLevel": "Vulnerable",
      "nbSpeakers": 890596,
      "latitude": 15.0309,
      "longitude": -91.1485
    },
    {
      "lanID": 989,
      "enName": "Quechua of Ayacucho",
      "frName": "quechua d'Ayacucho",
      "esName": "quechua de Ayacucho",
      "countries": "Peru",
      "countryCdeA3": "PER",
      "isoCdes": "quy",
      "dangerLevel": "Definitely endangered",
      "nbSpeakers": 850000,
      "latitude": -13.1276,
      "longitude": -74.2071
    },
    {
      "lanID": 1117,
      "enName": "Newar",
      "frName": "newar",
      "esName": "nevarí",
      "countries": "Nepal",
      "countryCdeA3": "NPL",
      "isoCdes": "new",
      "dangerLevel": "Definitely endangered",
      "nbSpeakers": 825458,
      "latitude": 27.6981,
      "longitude": 85.3198
    },
    {
      "lanID": 2222,
      "enName": "Mon",
      "frName": "môn",
      "esName": "mon",
      "countries": "Myanmar, Thailand",
      "countryCdeA3": "MMR, THA",
      "isoCdes": "mnw",
      "dangerLevel": "Vulnerable",
      "nbSpeakers": 800000,
      "latitude": 16.4666,
      "longitude": 97.7833
    },
    {
      "lanID": 1523,
      "enName": "Polesian",
      "frName": "polésien",
      "esName": "polesio",
      "countries": "Belarus, Poland, Ukraine",
      "countryCdeA3": "BRB, POL, UKR",
      "isoCdes": "",
      "dangerLevel": "Vulnerable",
      "nbSpeakers": 800000,
      "latitude": 51.8629,
      "longitude": 23.9501
    },
    {
      "lanID": 701,
      "enName": "Tamaceq",
      "frName": "tamaceq",
      "esName": "tamacheq tahoua",
      "countries": "Mali",
      "countryCdeA3": "MLI",
      "isoCdes": "taq",
      "dangerLevel": "Definitely endangered",
      "nbSpeakers": 800000,
      "latitude": 16.7992,
      "longitude": -3.0102
    },
    {
      "lanID": 1069,
      "enName": "Avar",
      "frName": "avar",
      "esName": "avar",
      "countries": "Russian Federation",
      "countryCdeA3": "RUS",
      "isoCdes": "ava",
      "dangerLevel": "Vulnerable",
      "nbSpeakers": 784840,
      "latitude": 42.4801,
      "longitude": 46.8017
    },
    {
      "lanID": 1211,
      "enName": "Mundari",
      "frName": "mundari",
      "esName": "mundarí",
      "countries": "India",
      "countryCdeA3": "IND",
      "isoCdes": "muw",
      "dangerLevel": "Vulnerable",
      "nbSpeakers": 750000,
      "latitude": 22.3297,
      "longitude": 86.0449
    },
    {
      "lanID": 425,
      "enName": "Welsh",
      "frName": "gallois",
      "esName": "galés",
      "countries": "United Kingdom of Great Britain and Northern Ireland",
      "countryCdeA3": "GBR",
      "isoCdes": "cym",
      "dangerLevel": "Vulnerable",
      "nbSpeakers": 750000,
      "latitude": 52.4459,
      "longitude": -3.5485
    },
    {
      "lanID": 1202,
      "enName": "Angika",
      "frName": "angika",
      "esName": "anga",
      "countries": "India, Nepal",
      "countryCdeA3": "IND, NPL",
      "isoCdes": "anp",
      "dangerLevel": "Vulnerable",
      "nbSpeakers": 740892,
      "latitude": 24.7451,
      "longitude": 85.3124
    },
    {
      "lanID": 1827,
      "enName": "Q'eqchi' (Guatemala)",
      "frName": "q’eqchi' (Guatemala)",
      "esName": "cachí (Guatemala)",
      "countries": "Guatemala",
      "countryCdeA3": "GTM",
      "isoCdes": "kek",
      "dangerLevel": "Vulnerable",
      "nbSpeakers": 716101,
      "latitude": 15.4707,
      "longitude": -90.3722
    },
    {
      "lanID": 398,
      "enName": "Picard",
      "frName": "picard",
      "esName": "picardo",
      "countries": "Belgium, France",
      "countryCdeA3": "BEL, FRA",
      "isoCdes": "pcd",
      "dangerLevel": "Severely endangered",
      "nbSpeakers": 700000,
      "latitude": 50.2331,
      "longitude": 2.7905
    },
    {
      "lanID": 1228,
      "enName": "Kokborok",
      "frName": "kokborok",
      "esName": "kok borok",
      "countries": "Bangladesh, India",
      "countryCdeA3": "BGD, IND",
      "isoCdes": "trp",
      "dangerLevel": "Vulnerable",
      "nbSpeakers": 695000,
      "latitude": 23.7752,
      "longitude": 91.6918
    },
    {
      "lanID": 415,
      "enName": "Basque",
      "frName": "basque",
      "esName": "euskera",
      "countries": "Spain, France",
      "countryCdeA3": "ESP, FRA",
      "isoCdes": "eus",
      "dangerLevel": "Vulnerable",
      "nbSpeakers": 660000,
      "latitude": 43.133,
      "longitude": -2.0764
    },
    {
      "lanID": 1065,
      "enName": "Kabard-Cherkes",
      "frName": "kabarde-tcherkesse",
      "esName": "kabardái",
      "countries": "Russian Federation, Turkey",
      "countryCdeA3": "RUS, TUR",
      "isoCdes": "kbd",
      "dangerLevel": "Vulnerable",
      "nbSpeakers": 650000,
      "latitude": 43.7393,
      "longitude": 43.4289
    },
    {
      "lanID": 1559,
      "enName": "Mandeali",
      "frName": "mandeali",
      "esName": "mandeali",
      "countries": "India",
      "countryCdeA3": "IND",
      "isoCdes": "mjl",
      "dangerLevel": "Definitely endangered",
      "nbSpeakers": 611930,
      "latitude": 31.4099,
      "longitude": 76.9921
    },
    {
      "lanID": 353,
      "enName": "Friulian",
      "frName": "frioulan",
      "esName": "friulano",
      "countries": "Italy",
      "countryCdeA3": "ITA",
      "isoCdes": "fur",
      "dangerLevel": "Definitely endangered",
      "nbSpeakers": 600000,
      "latitude": 46.1037,
      "longitude": 13.1396
    },
    {
      "lanID": 997,
      "enName": "Quechua of Ancash and Huánuco",
      "frName": "quechua d'Ancash et Huánuco",
      "esName": "quechua de Ancash y de Huánuco",
      "countries": "Peru",
      "countryCdeA3": "PER",
      "isoCdes": "qec, qed, qee, qan, qei, qub, qej, qel, qem",
      "dangerLevel": "Definitely endangered",
      "nbSpeakers": 600000,
      "latitude": -9.4598,
      "longitude": -77.1789
    },
    {
      "lanID": 1947,
      "enName": "Walloon",
      "frName": "wallon",
      "esName": "valón",
      "countries": "Belgium, France, Luxembourg",
      "countryCdeA3": "BEL, FRA, LUX",
      "isoCdes": "wln",
      "dangerLevel": "Definitely endangered",
      "nbSpeakers": 600000,
      "latitude": 50.4575,
      "longitude": 4.8559
    },
    {
      "lanID": 1091,
      "enName": "Mising",
      "frName": "mising",
      "esName": "mising",
      "countries": "India",
      "countryCdeA3": "IND",
      "isoCdes": "mrg",
      "dangerLevel": "Definitely endangered",
      "nbSpeakers": 550000,
      "latitude": 26.9612,
      "longitude": 94.0539
    },
    {
      "lanID": 1066,
      "enName": "Ossete",
      "frName": "ossète",
      "esName": "osético",
      "countries": "Georgia, Russian Federation",
      "countryCdeA3": "GEO, RUS",
      "isoCdes": "oss",
      "dangerLevel": "Vulnerable",
      "nbSpeakers": 550000,
      "latitude": 42.9564,
      "longitude": 44.4946
    },
    {
      "lanID": 1230,
      "enName": "Mizo",
      "frName": "mizo",
      "esName": "lushai",
      "countries": "India",
      "countryCdeA3": "IND",
      "isoCdes": "lus",
      "dangerLevel": "Vulnerable",
      "nbSpeakers": 529000,
      "latitude": 22.9988,
      "longitude": 92.9223
    },
    {
      "lanID": 1070,
      "enName": "Dargwa",
      "frName": "dargwa",
      "esName": "dargínico",
      "countries": "Russian Federation",
      "countryCdeA3": "RUS",
      "isoCdes": "dar",
      "dangerLevel": "Vulnerable",
      "nbSpeakers": 503523,
      "latitude": 42.1145,
      "longitude": 47.4938
    },
    {
      "lanID": 331,
      "enName": "Aromanian",
      "frName": "aroumain",
      "esName": "arrumano",
      "countries": "Albania, Bulgaria, Greece, The former Yugoslav Republic of Macedonia, Serbia",
      "countryCdeA3": "ALB, BGR, GRC, MKD, SRB",
      "isoCdes": "rup",
      "dangerLevel": "Definitely endangered",
      "nbSpeakers": 500000,
      "latitude": 40.2292,
      "longitude": 21.1376
    },
    {
      "lanID": 2485,
      "enName": "Brahui",
      "frName": "brahui",
      "esName": "birahuí",
      "countries": "Iran (Islamic Republic of), Pakistan, Afghanistan",
      "countryCdeA3": "IRN, PAK, AFG",
      "isoCdes": "brh",
      "dangerLevel": "Vulnerable",
      "nbSpeakers": 500000,
      "latitude": 29.0369,
      "longitude": 66.5826
    },
    {
      "lanID": 375,
      "enName": "Languedocian",
      "frName": "languedocien",
      "esName": "languedociano",
      "countries": "France",
      "countryCdeA3": "FRA",
      "isoCdes": "oci",
      "dangerLevel": "Severely endangered",
      "nbSpeakers": 500000,
      "latitude": 43.8899,
      "longitude": 2.5378
    },
    {
      "lanID": 1072,
      "enName": "Lezgian",
      "frName": "lezghien",
      "esName": "lezguio",
      "countries": "Azerbaijan, Russian Federation",
      "countryCdeA3": "AZE, RUS",
      "isoCdes": "lez",
      "dangerLevel": "Vulnerable",
      "nbSpeakers": 500000,
      "latitude": 41.4921,
      "longitude": 48.0541
    },
    {
      "lanID": 1558,
      "enName": "Mahasui",
      "frName": "mahasui",
      "esName": "paharí mahasu",
      "countries": "India",
      "countryCdeA3": "IND",
      "isoCdes": "bfz",
      "dangerLevel": "Definitely endangered",
      "nbSpeakers": 496024,
      "latitude": 31.2738,
      "longitude": 77.1295
    },
    {
      "lanID": 1118,
      "enName": "Magar",
      "frName": "magar",
      "esName": "magarí",
      "countries": "Nepal",
      "countryCdeA3": "NPL",
      "isoCdes": "mgp, mrd",
      "dangerLevel": "Definitely endangered",
      "nbSpeakers": 489383,
      "latitude": 28.0816,
      "longitude": 83.4301
    },
    {
      "lanID": 1822,
      "enName": "Mam (Guatemala)",
      "frName": "mam (Guatemala)",
      "esName": "mam (Guatemala)",
      "countries": "Guatemala",
      "countryCdeA3": "GTM",
      "isoCdes": "",
      "dangerLevel": "Vulnerable",
      "nbSpeakers": 477717,
      "latitude": 14.9305,
      "longitude": -91.9078
    },
    {
      "lanID": 418,
      "enName": "Udmurt",
      "frName": "oudmourte",
      "esName": "votiaco",
      "countries": "Russian Federation",
      "countryCdeA3": "RUS",
      "isoCdes": "udm",
      "dangerLevel": "Definitely endangered",
      "nbSpeakers": 463837,
      "latitude": 57.2315,
      "longitude": 52.8662
    },
    {
      "lanID": 1506,
      "enName": "Huasteca Náhuatl",
      "frName": "náhuatl du Huasteca",
      "esName": "nahua de la Huasteca",
      "countries": "Mexico",
      "countryCdeA3": "MEX",
      "isoCdes": "nhe",
      "dangerLevel": "Vulnerable",
      "nbSpeakers": 463183,
      "latitude": 21.3835,
      "longitude": -98.9902
    },
    {
      "lanID": 1074,
      "enName": "Kumyk",
      "frName": "koumyk",
      "esName": "kumyko",
      "countries": "Russian Federation",
      "countryCdeA3": "RUS",
      "isoCdes": "kum",
      "dangerLevel": "Vulnerable",
      "nbSpeakers": 458121,
      "latitude": 43.397,
      "longitude": 46.9775
    },
    {
      "lanID": 508,
      "enName": "Yakut",
      "frName": "yakoute",
      "esName": "yakuto",
      "countries": "Russian Federation",
      "countryCdeA3": "RUS",
      "isoCdes": "sah",
      "dangerLevel": "Vulnerable",
      "nbSpeakers": 456288,
      "latitude": 62.3496,
      "longitude": 130.8691
    },
    {
      "lanID": 1801,
      "enName": "Kaqchikel (Guatemala)",
      "frName": "kaqchikel (Guatemala)",
      "esName": "cachiquel (Guatemala)",
      "countries": "Guatemala",
      "countryCdeA3": "GTM",
      "isoCdes": "",
      "dangerLevel": "Vulnerable",
      "nbSpeakers": 444954,
      "latitude": 14.7814,
      "longitude": -90.7925
    },
    {
      "lanID": 1165,
      "enName": "Karbi",
      "frName": "karbi",
      "esName": "miquirés",
      "countries": "India",
      "countryCdeA3": "IND",
      "isoCdes": "mjw",
      "dangerLevel": "Vulnerable",
      "nbSpeakers": 420000,
      "latitude": 26.2934,
      "longitude": 93.2299
    },
    {
      "lanID": 347,
      "enName": "Eastern Mari",
      "frName": "mari oriental",
      "esName": "marí oriental",
      "countries": "Russian Federation",
      "countryCdeA3": "RUS",
      "isoCdes": "mhr",
      "dangerLevel": "Definitely endangered",
      "nbSpeakers": 414211,
      "latitude": 56.632,
      "longitude": 47.8784
    },
    {
      "lanID": 1068,
      "enName": "Ingush",
      "frName": "ingouche",
      "esName": "inguso",
      "countries": "Russian Federation",
      "countryCdeA3": "RUS",
      "isoCdes": "inh",
      "dangerLevel": "Vulnerable",
      "nbSpeakers": 405343,
      "latitude": 43.145,
      "longitude": 45.1043
    },
    {
      "lanID": 350,
      "enName": "Erzya",
      "frName": "erzya",
      "esName": "mordovo erzya",
      "countries": "Russian Federation",
      "countryCdeA3": "RUS",
      "isoCdes": "myv",
      "dangerLevel": "Definitely endangered",
      "nbSpeakers": 400000,
      "latitude": 54.1302,
      "longitude": 45.4394
    },
    {
      "lanID": 1212,
      "enName": "Ho",
      "frName": "ho",
      "esName": "ho",
      "countries": "India",
      "countryCdeA3": "IND",
      "isoCdes": "hoc",
      "dangerLevel": "Vulnerable",
      "nbSpeakers": 400000,
      "latitude": 21.637,
      "longitude": 86.4404
    },
    {
      "lanID": 2165,
      "enName": "Judezmo (Israel)",
      "frName": "judéo-espagnol (Israël)",
      "esName": "sefardí (Israel)",
      "countries": "Israel",
      "countryCdeA3": "ISR",
      "isoCdes": "lad",
      "dangerLevel": "Severely endangered",
      "nbSpeakers": 400000,
      "latitude": 32.0872,
      "longitude": 34.7737
    },
    {
      "lanID": 534,
      "enName": "Lalo",
      "frName": "lalo",
      "esName": "lalo",
      "countries": "China",
      "countryCdeA3": "CHN",
      "isoCdes": "yik, ywt, yit, ywl",
      "dangerLevel": "Vulnerable",
      "nbSpeakers": 400000,
      "latitude": 25.383,
      "longitude": 99.9426
    },
    {
      "lanID": 378,
      "enName": "Limousin",
      "frName": "limousin",
      "esName": "lemosín",
      "countries": "France",
      "countryCdeA3": "FRA",
      "isoCdes": "oci",
      "dangerLevel": "Severely endangered",
      "nbSpeakers": 400000,
      "latitude": 46.0579,
      "longitude": 1.8017
    },
    {
      "lanID": 381,
      "enName": "Logudorese",
      "frName": "logoudorien",
      "esName": "sardo logudorés",
      "countries": "Italy",
      "countryCdeA3": "ITA",
      "isoCdes": "src",
      "dangerLevel": "Definitely endangered",
      "nbSpeakers": 400000,
      "latitude": 40.1116,
      "longitude": 9.1845
    },
    {
      "lanID": 626,
      "enName": "Mapuche (Chile)",
      "frName": "mapuche  (Chile)",
      "esName": "mapuche (Chile)",
      "countries": "Chile",
      "countryCdeA3": "CHL",
      "isoCdes": "arn",
      "dangerLevel": "Definitely endangered",
      "nbSpeakers": 400000,
      "latitude": -38.5653,
      "longitude": -73.081
    },
    {
      "lanID": 1503,
      "enName": "Central Náhuatl",
      "frName": "náhuatl central",
      "esName": "nahua central",
      "countries": "Mexico",
      "countryCdeA3": "MEX",
      "isoCdes": "nhn, nch, ncx",
      "dangerLevel": "Vulnerable",
      "nbSpeakers": 395581,
      "latitude": 19.191,
      "longitude": -99.0236
    },
    {
      "lanID": 424,
      "enName": "Moselle Franconian",
      "frName": "francique mosellan",
      "esName": "franconio del Mosela",
      "countries": "Germany, Belgium, France, Luxembourg",
      "countryCdeA3": "DEU, BEL, FRA, LUX",
      "isoCdes": "ltz",
      "dangerLevel": "Vulnerable",
      "nbSpeakers": 390000,
      "latitude": 49.6071,
      "longitude": 6.1248
    },
    {
      "lanID": 964,
      "enName": "Bantawa",
      "frName": "bantawa",
      "esName": "bantawa",
      "countries": "Nepal",
      "countryCdeA3": "NPL",
      "isoCdes": "bap",
      "dangerLevel": "Vulnerable",
      "nbSpeakers": 371056,
      "latitude": 27.0994,
      "longitude": 87.0048
    },
    {
      "lanID": 1424,
      "enName": "Santa",
      "frName": "dongxiang",
      "esName": "santa",
      "countries": "China",
      "countryCdeA3": "CHN",
      "isoCdes": "sce",
      "dangerLevel": "Vulnerable",
      "nbSpeakers": 360000,
      "latitude": 35.5411,
      "longitude": 102.7935
    },
    {
      "lanID": 1057,
      "enName": "Mingrelian",
      "frName": "mingrélien",
      "esName": "mingrelio",
      "countries": "Georgia",
      "countryCdeA3": "GEO",
      "isoCdes": "xmf",
      "dangerLevel": "Definitely endangered",
      "nbSpeakers": 350000,
      "latitude": 42.4599,
      "longitude": 41.7205
    },
    {
      "lanID": 426,
      "enName": "West Frisian",
      "frName": "frison occidental",
      "esName": "frisón occidental",
      "countries": "Netherlands",
      "countryCdeA3": "NLD",
      "isoCdes": "fry",
      "dangerLevel": "Vulnerable",
      "nbSpeakers": 350000,
      "latitude": 53.1006,
      "longitude": 5.6579
    },
    {
      "lanID": 1113,
      "enName": "Gurung",
      "frName": "gurung",
      "esName": "gurung",
      "countries": "Nepal",
      "countryCdeA3": "NPL",
      "isoCdes": "ggn, gvr",
      "dangerLevel": "Definitely endangered",
      "nbSpeakers": 338925,
      "latitude": 28.275,
      "longitude": 84.1782
    },
    {
      "lanID": 295,
      "enName": "Guajiro",
      "frName": "guajiro",
      "esName": "guajiro",
      "countries": "Colombia, Venezuela (Bolivarian Republic of)",
      "countryCdeA3": "COL, VEN",
      "isoCdes": "guc",
      "dangerLevel": "Vulnerable",
      "nbSpeakers": 318500,
      "latitude": 11.8673,
      "longitude": -71.9824
    },
    {
      "lanID": 1075,
      "enName": "Karachay-Balkar",
      "frName": "karatchaï-balkar",
      "esName": "karachay-balkar",
      "countries": "Russian Federation",
      "countryCdeA3": "RUS",
      "isoCdes": "krc",
      "dangerLevel": "Vulnerable",
      "nbSpeakers": 302748,
      "latitude": 44.2137,
      "longitude": 42.8466
    },
    {
      "lanID": 1064,
      "enName": "Adyge",
      "frName": "adyguéen",
      "esName": "adiga",
      "countries": "Iraq, Israel, Jordan, The former Yugoslav Republic of Macedonia, Russian Federation, Syrian Arab Republic, Turkey",
      "countryCdeA3": "IRQ, ISR, JOR, MKD, RUS, SYR, TUR",
      "isoCdes": "ady",
      "dangerLevel": "Vulnerable",
      "nbSpeakers": 300000,
      "latitude": 44.9181,
      "longitude": 39.7485
    },
    {
      "lanID": 469,
      "enName": "Buryat (Trans-Baikal)",
      "frName": "bouriate (Transbaïkalie)",
      "esName": "buriato (transbaikálico)",
      "countries": "Russian Federation",
      "countryCdeA3": "RUS",
      "isoCdes": "bxm, bxr, bxu",
      "dangerLevel": "Definitely endangered",
      "nbSpeakers": 300000,
      "latitude": 50.8336,
      "longitude": 109.5117
    },
    {
      "lanID": 1574,
      "enName": "Kurru",
      "frName": "kurru",
      "esName": "yerukala",
      "countries": "India",
      "countryCdeA3": "IND",
      "isoCdes": "yeu",
      "dangerLevel": "Definitely endangered",
      "nbSpeakers": 300000,
      "latitude": 16.6151,
      "longitude": 81.6284
    },
    {
      "lanID": 1578,
      "enName": "Kuvi",
      "frName": "kouvi",
      "esName": "kuvi",
      "countries": "India",
      "countryCdeA3": "IND",
      "isoCdes": "kxv",
      "dangerLevel": "Definitely endangered",
      "nbSpeakers": 300000,
      "latitude": 18.9478,
      "longitude": 83.5839
    },
    {
      "lanID": 1028,
      "enName": "Limbu",
      "frName": "limbu",
      "esName": "limbu",
      "countries": "India, Nepal",
      "countryCdeA3": "IND, NPL",
      "isoCdes": "lif",
      "dangerLevel": "Definitely endangered",
      "nbSpeakers": 300000,
      "latitude": 27.096,
      "longitude": 87.7356
    },
    {
      "lanID": 2452,
      "enName": "Moroccan Judeo-Arabic (Israel)",
      "frName": "judéo-arabe du Maroc (Israël)",
      "esName": "judeo-árabe marroquí (Israel)",
      "countries": "Israel",
      "countryCdeA3": "ISR",
      "isoCdes": "aju",
      "dangerLevel": "Definitely endangered",
      "nbSpeakers": 300000,
      "latitude": 32.0476,
      "longitude": 34.7552
    },
    {
      "lanID": 401,
      "enName": "Plautdietsch",
      "frName": "plautdietsch",
      "esName": "bajo alemán",
      "countries": "Ukraine",
      "countryCdeA3": "UKR",
      "isoCdes": "pdt",
      "dangerLevel": "Definitely endangered",
      "nbSpeakers": 300000,
      "latitude": 47.0738,
      "longitude": 35.5545
    },
    {
      "lanID": 1078,
      "enName": "Pontic Greek",
      "frName": "grec pontique",
      "esName": "póntico",
      "countries": "Armenia, Georgia, Greece, Russian Federation, Turkey, Ukraine",
      "countryCdeA3": "ARM, GEO, GRC, RUS, TUR, UKR",
      "isoCdes": "pnt",
      "dangerLevel": "Definitely endangered",
      "nbSpeakers": 300000,
      "latitude": 40.847,
      "longitude": 40.0149
    },
    {
      "lanID": 1935,
      "enName": "Quichua (Cotopaxi, Tungurahua and Chimborazo)",
      "frName": "quichua (Cotopaxi, Tungurahua et Chimborazo)",
      "esName": "quichua (sierra central)",
      "countries": "Ecuador",
      "countryCdeA3": "ECU",
      "isoCdes": "qxr, qug, qvi, qvj, qvo, qvz, qxl",
      "dangerLevel": "Definitely endangered",
      "nbSpeakers": 300000,
      "latitude": -1.8673,
      "longitude": -78.9257
    },
    {
      "lanID": 1479,
      "enName": "Waxiang",
      "frName": "waxiang",
      "esName": "vasianhuá",
      "countries": "China",
      "countryCdeA3": "CHN",
      "isoCdes": "wxa",
      "dangerLevel": "Vulnerable",
      "nbSpeakers": 300000,
      "latitude": 28.5652,
      "longitude": 110.3576
    },
    {
      "lanID": 1434,
      "enName": "Oyrat",
      "frName": "oïrat",
      "esName": "oirato",
      "countries": "China, Kyrgyzstan, Mongolia",
      "countryCdeA3": "CHN, KGZ, MNG",
      "isoCdes": "xal",
      "dangerLevel": "Definitely endangered",
      "nbSpeakers": 280000,
      "latitude": 46.195,
      "longitude": 88.7255
    },
    {
      "lanID": 1563,
      "enName": "Garhwali",
      "frName": "garhwali",
      "esName": "garhwali",
      "countries": "India",
      "countryCdeA3": "IND",
      "isoCdes": "gbm",
      "dangerLevel": "Vulnerable",
      "nbSpeakers": 279500,
      "latitude": 30.0976,
      "longitude": 79.1235
    },
    {
      "lanID": 1380,
      "enName": "Bade",
      "frName": "bade",
      "esName": "badé",
      "countries": "Nigeria",
      "countryCdeA3": "NGA",
      "isoCdes": "bde",
      "dangerLevel": "Vulnerable",
      "nbSpeakers": 250000,
      "latitude": 12.801,
      "longitude": 11.1181
    },
    {
      "lanID": 336,
      "enName": "Breton",
      "frName": "breton",
      "esName": "bretón",
      "countries": "France",
      "countryCdeA3": "FRA",
      "isoCdes": "bre",
      "dangerLevel": "Severely endangered",
      "nbSpeakers": 250000,
      "latitude": 48.2246,
      "longitude": -3.9331
    },
    {
      "lanID": 352,
      "enName": "Gascon",
      "frName": "gascon",
      "esName": "gascón",
      "countries": "Spain, France",
      "countryCdeA3": "ESP, FRA",
      "isoCdes": "oci",
      "dangerLevel": "Definitely endangered",
      "nbSpeakers": 250000,
      "latitude": 43.1811,
      "longitude": -0.1428
    },
    {
      "lanID": 2245,
      "enName": "Phula (China)",
      "frName": "phula (Chine)",
      "esName": "pula (China)",
      "countries": "China",
      "countryCdeA3": "CHN",
      "isoCdes": "ypa, ypg, ypo, yip, ypn, yhl, ypb, phh, ypm, ypp, yph, ypz",
      "dangerLevel": "Vulnerable",
      "nbSpeakers": 250000,
      "latitude": 22.6001,
      "longitude": 104.0004
    },
    {
      "lanID": 1205,
      "enName": "Sora",
      "frName": "sora",
      "esName": "sora",
      "countries": "India",
      "countryCdeA3": "IND",
      "isoCdes": "srb",
      "dangerLevel": "Vulnerable",
      "nbSpeakers": 250000,
      "latitude": 19.1244,
      "longitude": 83.2104
    },
    {
      "lanID": 1119,
      "enName": "Konyak",
      "frName": "konyak",
      "esName": "coñac",
      "countries": "India",
      "countryCdeA3": "IND",
      "isoCdes": "nbe",
      "dangerLevel": "Vulnerable",
      "nbSpeakers": 248000,
      "latitude": 26.9367,
      "longitude": 95.1745
    },
    {
      "lanID": 1130,
      "enName": "Ao",
      "frName": "ao",
      "esName": "ao",
      "countries": "India",
      "countryCdeA3": "IND",
      "isoCdes": "ngo",
      "dangerLevel": "Vulnerable",
      "nbSpeakers": 243000,
      "latitude": 26.4361,
      "longitude": 94.6472
    },
    {
      "lanID": 1234,
      "enName": "Tuvan",
      "frName": "touvain",
      "esName": "tuva",
      "countries": "China, Mongolia, Russian Federation",
      "countryCdeA3": "CHN, MNG, RUS",
      "isoCdes": "tyv",
      "dangerLevel": "Vulnerable",
      "nbSpeakers": 242754,
      "latitude": 51.7134,
      "longitude": 94.3945
    },
    {
      "lanID": 1970,
      "enName": "Nafusi",
      "frName": "nefousi",
      "esName": "jabal nafusah",
      "countries": "Libyan Arab Jamahiriya",
      "countryCdeA3": "LBY",
      "isoCdes": "jbn",
      "dangerLevel": "Severely endangered",
      "nbSpeakers": 240000,
      "latitude": 32.6393,
      "longitude": 13.4252
    },
    {
      "lanID": 2232,
      "enName": "Suret",
      "frName": "soureth",
      "esName": "neo-arameo oriental",
      "countries": "Armenia, Iran (Islamic Republic of), Iraq, Syrian Arab Republic, Turkey",
      "countryCdeA3": "ARM, IRN, IRQ, SYR, TUR",
      "isoCdes": "aii, cld",
      "dangerLevel": "Definitely endangered",
      "nbSpeakers": 240000,
      "latitude": 36.4477,
      "longitude": 43.2971
    },
    {
      "lanID": 1592,
      "enName": "Malto",
      "frName": "malto",
      "esName": "malto",
      "countries": "India",
      "countryCdeA3": "IND",
      "isoCdes": "kmj",
      "dangerLevel": "Definitely endangered",
      "nbSpeakers": 224926,
      "latitude": 23.7853,
      "longitude": 85.4736
    },
    {
      "lanID": 1600,
      "enName": "Khowar",
      "frName": "khowar",
      "esName": "jovaro",
      "countries": "Pakistan",
      "countryCdeA3": "PAK",
      "isoCdes": "khw",
      "dangerLevel": "Vulnerable",
      "nbSpeakers": 222800,
      "latitude": 35.8667,
      "longitude": 71.7956
    },
    {
      "lanID": 2481,
      "enName": "Maiya",
      "frName": "maiya",
      "esName": "khili",
      "countries": "Pakistan",
      "countryCdeA3": "PAK",
      "isoCdes": "mvy",
      "dangerLevel": "Vulnerable",
      "nbSpeakers": 220000,
      "latitude": 35.3151,
      "longitude": 72.908
    },
    {
      "lanID": 373,
      "enName": "Komi",
      "frName": "komi",
      "esName": "komi",
      "countries": "Russian Federation",
      "countryCdeA3": "RUS",
      "isoCdes": "kpv",
      "dangerLevel": "Definitely endangered",
      "nbSpeakers": 217316,
      "latitude": 62.3087,
      "longitude": 51.5917
    },
    {
      "lanID": 365,
      "enName": "Alpine Provençal",
      "frName": "provençal alpin",
      "esName": "provenzal alpino",
      "countries": "France, Italy",
      "countryCdeA3": "FRA, ITA",
      "isoCdes": "oci",
      "dangerLevel": "Definitely endangered",
      "nbSpeakers": 200000,
      "latitude": 44.7467,
      "longitude": 6.6796
    },
    {
      "lanID": 355,
      "enName": "Gallo",
      "frName": "gallo",
      "esName": "gallo",
      "countries": "France",
      "countryCdeA3": "FRA",
      "isoCdes": "fra",
      "dangerLevel": "Severely endangered",
      "nbSpeakers": 200000,
      "latitude": 47.931,
      "longitude": -2.0544
    },
    {
      "lanID": 1384,
      "enName": "Gera",
      "frName": "gera",
      "esName": "gera",
      "countries": "Nigeria",
      "countryCdeA3": "NGA",
      "isoCdes": "gew",
      "dangerLevel": "Vulnerable",
      "nbSpeakers": 200000,
      "latitude": 10.5553,
      "longitude": 10.0579
    },
    {
      "lanID": 1570,
      "enName": "Irula",
      "frName": "irula",
      "esName": "irula",
      "countries": "India",
      "countryCdeA3": "IND",
      "isoCdes": "iru",
      "dangerLevel": "Vulnerable",
      "nbSpeakers": 200000,
      "latitude": 11.4369,
      "longitude": 76.5032
    },
    {
      "lanID": 1204,
      "enName": "Kharia",
      "frName": "kharia",
      "esName": "jariá",
      "countries": "India",
      "countryCdeA3": "IND",
      "isoCdes": "khr",
      "dangerLevel": "Vulnerable",
      "nbSpeakers": 200000,
      "latitude": 21.8003,
      "longitude": 85.4956
    },
    {
      "lanID": 847,
      "enName": "Khorasani Turk",
      "frName": "turc du Khorassan",
      "esName": "turco jorasaní",
      "countries": "Iran (Islamic Republic of)",
      "countryCdeA3": "IRN",
      "isoCdes": "kmz",
      "dangerLevel": "Vulnerable",
      "nbSpeakers": 200000,
      "latitude": 36.6596,
      "longitude": 57.854
    },
    {
      "lanID": 1210,
      "enName": "Korku",
      "frName": "korku",
      "esName": "koraku",
      "countries": "India",
      "countryCdeA3": "IND",
      "isoCdes": "kfq",
      "dangerLevel": "Vulnerable",
      "nbSpeakers": 200000,
      "latitude": 20.3034,
      "longitude": 80.2441
    },
    {
      "lanID": 328,
      "enName": "Moksha",
      "frName": "mokcha",
      "esName": "mordovo moksha",
      "countries": "Russian Federation",
      "countryCdeA3": "RUS",
      "isoCdes": "mdf",
      "dangerLevel": "Definitely endangered",
      "nbSpeakers": 200000,
      "latitude": 54.1817,
      "longitude": 43.2751
    },
    {
      "lanID": 7,
      "enName": "Western Armenian (Middle East)",
      "frName": "arménien occidental (Moyen-Orient)",
      "esName": "armenio occidental (Oriente Medio)",
      "countries": "Iraq, Lebanon, Syrian Arab Republic",
      "countryCdeA3": "IRQ, LBN, SYR",
      "isoCdes": "hye",
      "dangerLevel": "Definitely endangered",
      "nbSpeakers": 200000,
      "latitude": 33.884,
      "longitude": 35.5133
    },
    {
      "lanID": 2225,
      "enName": "Western Cham",
      "frName": "cham de l'ouest",
      "esName": "chamo occidental",
      "countries": "Cambodia",
      "countryCdeA3": "KHM",
      "isoCdes": "cja",
      "dangerLevel": "Vulnerable",
      "nbSpeakers": 200000,
      "latitude": 12.0333,
      "longitude": 105.4333
    },
    {
      "lanID": 1258,
      "enName": "Tshangla",
      "frName": "tshangla",
      "esName": "changla",
      "countries": "Bhutan, China, India",
      "countryCdeA3": "BTN, CHN, IND",
      "isoCdes": "tsj",
      "dangerLevel": "Vulnerable",
      "nbSpeakers": 193000,
      "latitude": 27.1275,
      "longitude": 91.9335
    },
    {
      "lanID": 1161,
      "enName": "Thado",
      "frName": "thado",
      "esName": "chin tado",
      "countries": "India",
      "countryCdeA3": "IND",
      "isoCdes": "tcz",
      "dangerLevel": "Vulnerable",
      "nbSpeakers": 191000,
      "latitude": 24.4521,
      "longitude": 93.2354
    },
    {
      "lanID": 389,
      "enName": "Gagauz (Bessarabia)",
      "frName": "gagaouze (Bessarabia)",
      "esName": "gagauso (Besarabia)",
      "countries": "Republic of Moldova, Ukraine",
      "countryCdeA3": "MDA, UKR",
      "isoCdes": "bgx, gag",
      "dangerLevel": "Definitely endangered",
      "nbSpeakers": 180000,
      "latitude": 46.0922,
      "longitude": 28.7951
    },
    {
      "lanID": 1557,
      "enName": "Kului",
      "frName": "kului",
      "esName": "paharí de Kullu",
      "countries": "India",
      "countryCdeA3": "IND",
      "isoCdes": "kfx",
      "dangerLevel": "Definitely endangered",
      "nbSpeakers": 170770,
      "latitude": 31.4403,
      "longitude": 77.1487
    },
    {
      "lanID": 981,
      "enName": "Adi",
      "frName": "adi",
      "esName": "adi",
      "countries": "China, India",
      "countryCdeA3": "CHN, IND",
      "isoCdes": "adi",
      "dangerLevel": "Vulnerable",
      "nbSpeakers": 170000,
      "latitude": 28.3527,
      "longitude": 95.2294
    },
    {
      "lanID": 1132,
      "enName": "Lhota",
      "frName": "lhota",
      "esName": "lota",
      "countries": "India",
      "countryCdeA3": "IND",
      "isoCdes": "njh",
      "dangerLevel": "Vulnerable",
      "nbSpeakers": 170000,
      "latitude": 26.1603,
      "longitude": 94.3725
    },
    {
      "lanID": 977,
      "enName": "Nyishi",
      "frName": "nyishi",
      "esName": "nisi",
      "countries": "India",
      "countryCdeA3": "IND",
      "isoCdes": "dap",
      "dangerLevel": "Vulnerable",
      "nbSpeakers": 170000,
      "latitude": 27.5277,
      "longitude": 93.0981
    },
    {
      "lanID": 1898,
      "enName": "Ngäbere (Panama)",
      "frName": "ngäbere (Panama)",
      "esName": "guaymí (Panamá)",
      "countries": "Panama",
      "countryCdeA3": "PAN",
      "isoCdes": "gym",
      "dangerLevel": "Vulnerable",
      "nbSpeakers": 169130,
      "latitude": 9.3395,
      "longitude": -82.2428
    },
    {
      "lanID": 1582,
      "enName": "Kodagu",
      "frName": "kodagu",
      "esName": "codagú",
      "countries": "India",
      "countryCdeA3": "IND",
      "isoCdes": "kfa",
      "dangerLevel": "Definitely endangered",
      "nbSpeakers": 166187,
      "latitude": 11.6952,
      "longitude": 75.9375
    },
    {
      "lanID": 340,
      "enName": "Corsican",
      "frName": "corse",
      "esName": "corso",
      "countries": "France, Italy",
      "countryCdeA3": "FRA, ITA",
      "isoCdes": "cos",
      "dangerLevel": "Definitely endangered",
      "nbSpeakers": 160000,
      "latitude": 42.0819,
      "longitude": 9.0307
    },
    {
      "lanID": 1253,
      "enName": "Dzongkha",
      "frName": "dzongkha",
      "esName": "butanés",
      "countries": "Bhutan",
      "countryCdeA3": "BTN",
      "isoCdes": "dzo",
      "dangerLevel": "Vulnerable",
      "nbSpeakers": 160000,
      "latitude": 27.44,
      "longitude": 89.6731
    },
    {
      "lanID": 368,
      "enName": "Kalmyk",
      "frName": "kalmouk",
      "esName": "kalmiko",
      "countries": "Russian Federation",
      "countryCdeA3": "RUS",
      "isoCdes": "xal",
      "dangerLevel": "Definitely endangered",
      "nbSpeakers": 153602,
      "latitude": 46.2026,
      "longitude": 45.8239
    },
    {
      "lanID": 1071,
      "enName": "Lak",
      "frName": "lak",
      "esName": "laco",
      "countries": "Russian Federation",
      "countryCdeA3": "RUS",
      "isoCdes": "lbe",
      "dangerLevel": "Vulnerable",
      "nbSpeakers": 153373,
      "latitude": 42.0125,
      "longitude": 47.2521
    },
    {
      "lanID": 332,
      "enName": "Asturian-Leonese",
      "frName": "asturien-léonais",
      "esName": "astur-leonés",
      "countries": "Spain, Portugal",
      "countryCdeA3": "ESP, PRT",
      "isoCdes": "ast, ext, mwl",
      "dangerLevel": "Definitely endangered",
      "nbSpeakers": 150000,
      "latitude": 42.7954,
      "longitude": -5.6689
    },
    {
      "lanID": 376,
      "enName": "Latgalian",
      "frName": "latgalien",
      "esName": "letón",
      "countries": "Latvia, Russian Federation",
      "countryCdeA3": "LVA, RUS",
      "isoCdes": "lav",
      "dangerLevel": "Vulnerable",
      "nbSpeakers": 150000,
      "latitude": 56.1822,
      "longitude": 27.1362
    },
    {
      "lanID": 404,
      "enName": "Provençal",
      "frName": "provençal",
      "esName": "provenzal",
      "countries": "France",
      "countryCdeA3": "FRA",
      "isoCdes": "oci",
      "dangerLevel": "Severely endangered",
      "nbSpeakers": 150000,
      "latitude": 43.5485,
      "longitude": 6.1083
    },
    {
      "lanID": 1174,
      "enName": "Rabha",
      "frName": "rabha",
      "esName": "rabha",
      "countries": "India",
      "countryCdeA3": "IND",
      "isoCdes": "rah",
      "dangerLevel": "Vulnerable",
      "nbSpeakers": 150000,
      "latitude": 25.9284,
      "longitude": 90.9777
    },
    {
      "lanID": 1996,
      "enName": "Tamzabit",
      "frName": "tamzabit",
      "esName": "tumzabí",
      "countries": "Algeria",
      "countryCdeA3": "DZA",
      "isoCdes": "mzb",
      "dangerLevel": "Vulnerable",
      "nbSpeakers": 150000,
      "latitude": 32.4816,
      "longitude": 3.6694
    },
    {
      "lanID": 1128,
      "enName": "Sherpa",
      "frName": "sherpa",
      "esName": "sherpa",
      "countries": "China, India, Nepal",
      "countryCdeA3": "CHN, IND, NPL",
      "isoCdes": "xsr",
      "dangerLevel": "Vulnerable",
      "nbSpeakers": 143693,
      "latitude": 27.739,
      "longitude": 86.839
    },
    {
      "lanID": 1154,
      "enName": "Tangkhul",
      "frName": "tangkhul",
      "esName": "tangkhul",
      "countries": "India",
      "countryCdeA3": "IND",
      "isoCdes": "nmf",
      "dangerLevel": "Vulnerable",
      "nbSpeakers": 142000,
      "latitude": 25.0358,
      "longitude": 94.4824
    },
    {
      "lanID": 1826,
      "enName": "Q'aanjob'al",
      "frName": "q’aanjob'al",
      "esName": "canjobalés",
      "countries": "Guatemala",
      "countryCdeA3": "GTM",
      "isoCdes": "",
      "dangerLevel": "Vulnerable",
      "nbSpeakers": 139830,
      "latitude": 15.6019,
      "longitude": -91.4441
    },
    {
      "lanID": 1569,
      "enName": "Badaga",
      "frName": "badaga",
      "esName": "badaga",
      "countries": "India",
      "countryCdeA3": "IND",
      "isoCdes": "bfq",
      "dangerLevel": "Definitely endangered",
      "nbSpeakers": 134514,
      "latitude": 11.3642,
      "longitude": 76.5266
    },
    {
      "lanID": 1140,
      "enName": "Angami",
      "frName": "angami",
      "esName": "angami",
      "countries": "India",
      "countryCdeA3": "IND",
      "isoCdes": "njm",
      "dangerLevel": "Vulnerable",
      "nbSpeakers": 132000,
      "latitude": 25.7553,
      "longitude": 94.1308
    },
    {
      "lanID": 1056,
      "enName": "Laz",
      "frName": "laze",
      "esName": "laz",
      "countries": "Georgia, Turkey",
      "countryCdeA3": "GEO, TUR",
      "isoCdes": "lzz",
      "dangerLevel": "Definitely endangered",
      "nbSpeakers": 130000,
      "latitude": 41.2736,
      "longitude": 41.2646
    },
    {
      "lanID": 1073,
      "enName": "Tabasaran",
      "frName": "tabassaran",
      "esName": "tabasarano",
      "countries": "Russian Federation",
      "countryCdeA3": "RUS",
      "isoCdes": "tab",
      "dangerLevel": "Vulnerable",
      "nbSpeakers": 128391,
      "latitude": 41.8081,
      "longitude": 47.9882
    },
    {
      "lanID": 1553,
      "enName": "Chambeali",
      "frName": "chambeali",
      "esName": "chameali",
      "countries": "India",
      "countryCdeA3": "IND",
      "isoCdes": "cdh",
      "dangerLevel": "Definitely endangered",
      "nbSpeakers": 126589,
      "latitude": 32.9072,
      "longitude": 76.5307
    },
    {
      "lanID": 1076,
      "enName": "Abkhaz",
      "frName": "abkhaze",
      "esName": "abjaso",
      "countries": "Georgia, Russian Federation, Turkey",
      "countryCdeA3": "GEO, RUS, TUR",
      "isoCdes": "abk",
      "dangerLevel": "Vulnerable",
      "nbSpeakers": 125000,
      "latitude": 43.133,
      "longitude": 40.8471
    },
    {
      "lanID": 1129,
      "enName": "Phom",
      "frName": "phom",
      "esName": "phom",
      "countries": "India",
      "countryCdeA3": "IND",
      "isoCdes": "nph",
      "dangerLevel": "Vulnerable",
      "nbSpeakers": 123000,
      "latitude": 26.7799,
      "longitude": 94.9493
    },
    {
      "lanID": 1588,
      "enName": "Kolami",
      "frName": "kolami",
      "esName": "colami",
      "countries": "India",
      "countryCdeA3": "IND",
      "isoCdes": "kfb",
      "dangerLevel": "Definitely endangered",
      "nbSpeakers": 121855,
      "latitude": 20.5093,
      "longitude": 78.1787
    },
    {
      "lanID": 784,
      "enName": "Navajo",
      "frName": "navajo",
      "esName": "navajo",
      "countries": "United States of America",
      "countryCdeA3": "USA",
      "isoCdes": "nav",
      "dangerLevel": "Vulnerable",
      "nbSpeakers": 120000,
      "latitude": 35.8044,
      "longitude": -108.475
    },
    {
      "lanID": 408,
      "enName": "Sassarese",
      "frName": "sassarien",
      "esName": "sasarés",
      "countries": "Italy",
      "countryCdeA3": "ITA",
      "isoCdes": "sdc",
      "dangerLevel": "Definitely endangered",
      "nbSpeakers": 120000,
      "latitude": 40.6139,
      "longitude": 8.6132
    },
    {
      "lanID": 655,
      "enName": "Tamahaq (Algeria)",
      "frName": "tamahaq (Algérie)",
      "esName": "tamahaq (Argelia)",
      "countries": "Algeria",
      "countryCdeA3": "DZA",
      "isoCdes": "thv",
      "dangerLevel": "Vulnerable",
      "nbSpeakers": 120000,
      "latitude": 22.8369,
      "longitude": 5.5371
    },
    {
      "lanID": 1590,
      "enName": "Konda",
      "frName": "konda",
      "esName": "conda-dora",
      "countries": "India",
      "countryCdeA3": "IND",
      "isoCdes": "kfc",
      "dangerLevel": "Definitely endangered",
      "nbSpeakers": 118597,
      "latitude": 18.2763,
      "longitude": 82.9385
    },
    {
      "lanID": 916,
      "enName": "Sierra Totonac",
      "frName": "totonaque de la Sierra",
      "esName": "totonacano de Sierra",
      "countries": "Mexico",
      "countryCdeA3": "MEX",
      "isoCdes": "tos",
      "dangerLevel": "Severely endangered",
      "nbSpeakers": 118367,
      "latitude": 20.2461,
      "longitude": -97.6586
    },
    {
      "lanID": 1564,
      "enName": "Jaunsari",
      "frName": "jaunsari",
      "esName": "jaunsari",
      "countries": "India",
      "countryCdeA3": "IND",
      "isoCdes": "jns",
      "dangerLevel": "Definitely endangered",
      "nbSpeakers": 114733,
      "latitude": 30.4859,
      "longitude": 78.0908
    },
    {
      "lanID": 1167,
      "enName": "Dimasa",
      "frName": "dimasa",
      "esName": "dimasa",
      "countries": "India",
      "countryCdeA3": "IND",
      "isoCdes": "dis",
      "dangerLevel": "Vulnerable",
      "nbSpeakers": 112000,
      "latitude": 24.7368,
      "longitude": 92.9003
    },
    {
      "lanID": 1179,
      "enName": "Ladakhi",
      "frName": "ladakhi",
      "esName": "ladakhi",
      "countries": "China, India",
      "countryCdeA3": "CHN, IND",
      "isoCdes": "cna, lbj, tkk",
      "dangerLevel": "Vulnerable",
      "nbSpeakers": 105000,
      "latitude": 34.0617,
      "longitude": 77.5909
    },
    {
      "lanID": 1429,
      "enName": "Salar",
      "frName": "salar",
      "esName": "salar",
      "countries": "China",
      "countryCdeA3": "CHN",
      "isoCdes": "slr",
      "dangerLevel": "Vulnerable",
      "nbSpeakers": 104503,
      "latitude": 36.2752,
      "longitude": 102.4584
    },
    {
      "lanID": 1136,
      "enName": "Simi",
      "frName": "simi",
      "esName": "simí",
      "countries": "India",
      "countryCdeA3": "IND",
      "isoCdes": "nsm",
      "dangerLevel": "Vulnerable",
      "nbSpeakers": 104000,
      "latitude": 25.9777,
      "longitude": 94.5922
    },
    {
      "lanID": 904,
      "enName": "Phurhepecha",
      "frName": "purepecha",
      "esName": "purépecha",
      "countries": "Mexico",
      "countryCdeA3": "MEX",
      "isoCdes": "tsz",
      "dangerLevel": "Vulnerable",
      "nbSpeakers": 102988,
      "latitude": 19.3111,
      "longitude": -102.041
    },
    {
      "lanID": 342,
      "enName": "Crimean Tatar (Crimea)",
      "frName": "tatar de Crimée (Crimée)",
      "esName": "tártaro crimeano (Crimea)",
      "countries": "Ukraine",
      "countryCdeA3": "UKR",
      "isoCdes": "crh, jct",
      "dangerLevel": "Severely endangered",
      "nbSpeakers": 100000,
      "latitude": 45.3212,
      "longitude": 34.3212
    },
    {
      "lanID": 451,
      "enName": "Dagur (Nonni)",
      "frName": "dagour (Nonni)",
      "esName": "daguro (Nonni)",
      "countries": "China",
      "countryCdeA3": "CHN",
      "isoCdes": "dta",
      "dangerLevel": "Definitely endangered",
      "nbSpeakers": 100000,
      "latitude": 47.9163,
      "longitude": 124.1235
    },
    {
      "lanID": 366,
      "enName": "Francoprovençal",
      "frName": "francoprovençal",
      "esName": "francoprovenzal",
      "countries": "France, Italy, Switzerland",
      "countryCdeA3": "FRA, ITA, CHE",
      "isoCdes": "frp",
      "dangerLevel": "Definitely endangered",
      "nbSpeakers": 100000,
      "latitude": 45.7828,
      "longitude": 6.9982
    },
    {
      "lanID": 356,
      "enName": "Gallurese",
      "frName": "gallurien",
      "esName": "sardo galurés",
      "countries": "Italy",
      "countryCdeA3": "ITA",
      "isoCdes": "sdn",
      "dangerLevel": "Definitely endangered",
      "nbSpeakers": 100000,
      "latitude": 40.8802,
      "longitude": 9.4482
    },
    {
      "lanID": 1754,
      "enName": "Mapuche (Argentina)",
      "frName": "mapuche (Argentine)",
      "esName": "mapuche (Argentina)",
      "countries": "Argentina",
      "countryCdeA3": "ARG",
      "isoCdes": "arn",
      "dangerLevel": "Severely endangered",
      "nbSpeakers": 100000,
      "latitude": -40.0791,
      "longitude": -71.0156
    },
    {
      "lanID": 1620,
      "enName": "Mehri",
      "frName": "mehri",
      "esName": "mahri",
      "countries": "Oman, Yemen",
      "countryCdeA3": "OMN, YEM",
      "isoCdes": "gdq",
      "dangerLevel": "Definitely endangered",
      "nbSpeakers": 100000,
      "latitude": 16.5993,
      "longitude": 52.8057
    },
    {
      "lanID": 1891,
      "enName": "Miskito (Nicaragua)",
      "frName": "miskito (Nicaragua)",
      "esName": "misquito (Nicaragua)",
      "countries": "Nicaragua",
      "countryCdeA3": "NIC",
      "isoCdes": "",
      "dangerLevel": "Vulnerable",
      "nbSpeakers": 100000,
      "latitude": 12.4001,
      "longitude": -83.7332
    },
    {
      "lanID": 1233,
      "enName": "Ordos",
      "frName": "ordos",
      "esName": "ordoso",
      "countries": "China",
      "countryCdeA3": "CHN",
      "isoCdes": "drh, khk, mvf",
      "dangerLevel": "Definitely endangered",
      "nbSpeakers": 100000,
      "latitude": 39.1641,
      "longitude": 108.1054
    },
    {
      "lanID": 1944,
      "enName": "Quechua of Northern Bolivia",
      "frName": "quechua bolivien du nord",
      "esName": "quechua boliviano septentrional",
      "countries": "Bolivia (Plurinational State of)",
      "countryCdeA3": "BOL",
      "isoCdes": "qul",
      "dangerLevel": "Vulnerable",
      "nbSpeakers": 100000,
      "latitude": -15.3649,
      "longitude": -69.0518
    },
    {
      "lanID": 96,
      "enName": "Suba",
      "frName": "suba",
      "esName": "suba",
      "countries": "Kenya, United Republic of Tanzania",
      "countryCdeA3": "KEN, TZA",
      "isoCdes": "sxb, ssc",
      "dangerLevel": "Vulnerable",
      "nbSpeakers": 100000,
      "latitude": -0.9942,
      "longitude": 34.519
    },
    {
      "lanID": 1861,
      "enName": "Garífuna (Honduras)",
      "frName": "garifuna (Honduras)",
      "esName": "garífuna (Honduras)",
      "countries": "Honduras",
      "countryCdeA3": "HND",
      "isoCdes": "cab",
      "dangerLevel": "Vulnerable",
      "nbSpeakers": 98000,
      "latitude": 15.6754,
      "longitude": -88.1476
    },
    {
      "lanID": 292,
      "enName": "Embera (Colombia)",
      "frName": "embera (Colombie)",
      "esName": "embera  (Colombia)",
      "countries": "Colombia",
      "countryCdeA3": "COL",
      "isoCdes": "emp, cmi, cto, sja, bdc, tdc, crf",
      "dangerLevel": "Vulnerable",
      "nbSpeakers": 95000,
      "latitude": 6.1624,
      "longitude": -76.8383
    },
    {
      "lanID": 1162,
      "enName": "Kabui",
      "frName": "kabui",
      "esName": "kabui",
      "countries": "India",
      "countryCdeA3": "IND",
      "isoCdes": "nkf",
      "dangerLevel": "Vulnerable",
      "nbSpeakers": 95000,
      "latitude": 24.7218,
      "longitude": 93.6584
    },
    {
      "lanID": 760,
      "enName": "Shughni",
      "frName": "shughni",
      "esName": "chugní",
      "countries": "Tajikistan, Afghanistan",
      "countryCdeA3": "TJK, AFG",
      "isoCdes": "sgh",
      "dangerLevel": "Vulnerable",
      "nbSpeakers": 95000,
      "latitude": 37.4879,
      "longitude": 71.5374
    },
    {
      "lanID": 397,
      "enName": "Permyak",
      "frName": "permiak",
      "esName": "permiaco",
      "countries": "Russian Federation",
      "countryCdeA3": "RUS",
      "isoCdes": "koi",
      "dangerLevel": "Definitely endangered",
      "nbSpeakers": 94328,
      "latitude": 59.204,
      "longitude": 54.5361
    },
    {
      "lanID": 1825,
      "enName": "Poqomchi'",
      "frName": "poqomchi'",
      "esName": "Poqomchí",
      "countries": "Guatemala",
      "countryCdeA3": "GTM",
      "isoCdes": "pob",
      "dangerLevel": "Vulnerable",
      "nbSpeakers": 92941,
      "latitude": 15.3757,
      "longitude": -90.4288
    },
    {
      "lanID": 1135,
      "enName": "Yimchungru",
      "frName": "yimchungru",
      "esName": "yimchungru",
      "countries": "India",
      "countryCdeA3": "IND",
      "isoCdes": "yim",
      "dangerLevel": "Vulnerable",
      "nbSpeakers": 92000,
      "latitude": 25.9629,
      "longitude": 94.9713
    },
    {
      "lanID": 669,
      "enName": "Nogay (Caucasus)",
      "frName": "nogaï (Caucase)",
      "esName": "nogái (Cáucaso)",
      "countries": "Russian Federation",
      "countryCdeA3": "RUS",
      "isoCdes": "nog",
      "dangerLevel": "Definitely endangered",
      "nbSpeakers": 90020,
      "latitude": 43.8028,
      "longitude": 46.2744
    },
    {
      "lanID": 700,
      "enName": "Heiban",
      "frName": "heiban",
      "esName": "heibán",
      "countries": "Sudan",
      "countryCdeA3": "SDN",
      "isoCdes": "hbn",
      "dangerLevel": "Vulnerable",
      "nbSpeakers": 90000,
      "latitude": 10.8575,
      "longitude": 30.2371
    },
    {
      "lanID": 1930,
      "enName": "Quichua (Cañar and Azuay)",
      "frName": "quichua (Cañar et Azuay)",
      "esName": "quichua (Cañar y Azuay)",
      "countries": "Ecuador",
      "countryCdeA3": "ECU",
      "isoCdes": "qxr, qug, qvi, qvj, qvo, qvz, qxl",
      "dangerLevel": "Severely endangered",
      "nbSpeakers": 90000,
      "latitude": -2.6577,
      "longitude": -78.8378
    },
    {
      "lanID": 932,
      "enName": "Mezquital Otomí",
      "frName": "otomí de Mezquital",
      "esName": "otomí del valle de Mezquital",
      "countries": "Mexico",
      "countryCdeA3": "MEX",
      "isoCdes": "ote",
      "dangerLevel": "Definitely endangered",
      "nbSpeakers": 88789,
      "latitude": 20.4831,
      "longitude": -99.217
    },
    {
      "lanID": 940,
      "enName": "Eastern Mazahua",
      "frName": "mazahua oriental",
      "esName": "mazahua oriental",
      "countries": "Mexico",
      "countryCdeA3": "MEX",
      "isoCdes": "",
      "dangerLevel": "Definitely endangered",
      "nbSpeakers": 88001,
      "latitude": 19.7129,
      "longitude": -99.9515
    },
    {
      "lanID": 1599,
      "enName": "Burushaski",
      "frName": "bourouchaski",
      "esName": "buruchaski",
      "countries": "Pakistan",
      "countryCdeA3": "PAK",
      "isoCdes": "bsk",
      "dangerLevel": "Vulnerable",
      "nbSpeakers": 87000,
      "latitude": 35.909,
      "longitude": 74.2153
    },
    {
      "lanID": 928,
      "enName": "Central Otomí",
      "frName": "otomí central",
      "esName": "otomí central",
      "countries": "Mexico",
      "countryCdeA3": "MEX",
      "isoCdes": "",
      "dangerLevel": "Definitely endangered",
      "nbSpeakers": 84593,
      "latitude": 19.4661,
      "longitude": -99.5944
    },
    {
      "lanID": 1141,
      "enName": "Chokri",
      "frName": "chokri",
      "esName": "chokrí",
      "countries": "India",
      "countryCdeA3": "IND",
      "isoCdes": "nri",
      "dangerLevel": "Vulnerable",
      "nbSpeakers": 84000,
      "latitude": 25.8691,
      "longitude": 94.7131
    },
    {
      "lanID": 1133,
      "enName": "Sangtam",
      "frName": "sangtam",
      "esName": "sangtam",
      "countries": "India",
      "countryCdeA3": "IND",
      "isoCdes": "nsa",
      "dangerLevel": "Vulnerable",
      "nbSpeakers": 84000,
      "latitude": 26.6032,
      "longitude": 94.9603
    },
    {
      "lanID": 1791,
      "enName": "Ixil (Guatemala)",
      "frName": "ixil (Guatemala)",
      "esName": "ijilo (Guatemala)",
      "countries": "Guatemala",
      "countryCdeA3": "GTM",
      "isoCdes": "",
      "dangerLevel": "Vulnerable",
      "nbSpeakers": 83574,
      "latitude": 15.4849,
      "longitude": -91.0358
    },
    {
      "lanID": 1777,
      "enName": "Achi'",
      "frName": "achi'",
      "esName": "achí",
      "countries": "Guatemala",
      "countryCdeA3": "GTM",
      "isoCdes": "acr",
      "dangerLevel": "Vulnerable",
      "nbSpeakers": 82640,
      "latitude": 15.0845,
      "longitude": -90.4888
    },
    {
      "lanID": 1686,
      "enName": "Yem",
      "frName": "yem",
      "esName": "yemsa",
      "countries": "Ethiopia",
      "countryCdeA3": "ETH",
      "isoCdes": "jnj",
      "dangerLevel": "Vulnerable",
      "nbSpeakers": 81613,
      "latitude": 7.6347,
      "longitude": 37.3205
    },
    {
      "lanID": 1144,
      "enName": "Mao",
      "frName": "mao",
      "esName": "mao",
      "countries": "India",
      "countryCdeA3": "IND",
      "isoCdes": "nbi",
      "dangerLevel": "Vulnerable",
      "nbSpeakers": 81000,
      "latitude": 25.5027,
      "longitude": 94.2681
    },
    {
      "lanID": 1347,
      "enName": "Arbëresh",
      "frName": "arbërerisht",
      "esName": "arberés",
      "countries": "Italy",
      "countryCdeA3": "ITA",
      "isoCdes": "aae",
      "dangerLevel": "Definitely endangered",
      "nbSpeakers": 80000,
      "latitude": 40.9321,
      "longitude": 14.8645
    },
    {
      "lanID": 1765,
      "enName": "Lari",
      "frName": "lari",
      "esName": "lari",
      "countries": "Iran (Islamic Republic of)",
      "countryCdeA3": "IRN",
      "isoCdes": "lrl, fay",
      "dangerLevel": "Definitely endangered",
      "nbSpeakers": 80000,
      "latitude": 27.8585,
      "longitude": 54.8547
    },
    {
      "lanID": 641,
      "enName": "Páez",
      "frName": "páez",
      "esName": "páez",
      "countries": "Colombia",
      "countryCdeA3": "COL",
      "isoCdes": "pbb",
      "dangerLevel": "Definitely endangered",
      "nbSpeakers": 80000,
      "latitude": 2.8237,
      "longitude": -76.3117
    },
    {
      "lanID": 2303,
      "enName": "Quechua of Santiago del Estero",
      "frName": "quechua de Santiago del Estero",
      "esName": "quechua de Santiago del Estero",
      "countries": "Argentina",
      "countryCdeA3": "ARG",
      "isoCdes": "qus",
      "dangerLevel": "Definitely endangered",
      "nbSpeakers": 80000,
      "latitude": -26.7848,
      "longitude": -63.6767
    },
    {
      "lanID": 1058,
      "enName": "Svan",
      "frName": "svane",
      "esName": "svan",
      "countries": "Georgia",
      "countryCdeA3": "GEO",
      "isoCdes": "sva",
      "dangerLevel": "Definitely endangered",
      "nbSpeakers": 80000,
      "latitude": 43.0207,
      "longitude": 42.3193
    },
    {
      "lanID": 2236,
      "enName": "Tai Daeng",
      "frName": "tai daeng",
      "esName": "taidaén",
      "countries": "Lao People's Democratic Republic, Viet Nam",
      "countryCdeA3": "LAO, VNM",
      "isoCdes": "tyr",
      "dangerLevel": "Vulnerable",
      "nbSpeakers": 80000,
      "latitude": 19.8833,
      "longitude": 104.6166
    },
    {
      "lanID": 2163,
      "enName": "Taznatit",
      "frName": "taznatit",
      "esName": "taznatit",
      "countries": "Algeria",
      "countryCdeA3": "DZA",
      "isoCdes": "grr",
      "dangerLevel": "Severely endangered",
      "nbSpeakers": 80000,
      "latitude": 29.3413,
      "longitude": 0.3955
    },
    {
      "lanID": 2179,
      "enName": "Razihi",
      "frName": "razihi",
      "esName": "razihi",
      "countries": "Yemen",
      "countryCdeA3": "YEM",
      "isoCdes": "",
      "dangerLevel": "Definitely endangered",
      "nbSpeakers": 75000,
      "latitude": 16.8834,
      "longitude": 43.2655
    },
    {
      "lanID": 1379,
      "enName": "Wakhi",
      "frName": "wakhi",
      "esName": "vakí",
      "countries": "China, Pakistan, Tajikistan, Afghanistan",
      "countryCdeA3": "CHN, PAK, TJK, AFG",
      "isoCdes": "wbl",
      "dangerLevel": "Definitely endangered",
      "nbSpeakers": 75000,
      "latitude": 37.1603,
      "longitude": 74.9047
    },
    {
      "lanID": 1568,
      "enName": "Bishnupriya Manipuri Creole",
      "frName": "créole bishnupriya manipuri",
      "esName": "manipurí",
      "countries": "Bangladesh, India",
      "countryCdeA3": "BGD, IND",
      "isoCdes": "bpy",
      "dangerLevel": "Vulnerable",
      "nbSpeakers": 72899,
      "latitude": 24.297,
      "longitude": 92.4499
    },
    {
      "lanID": 1713,
      "enName": "Acheron",
      "frName": "acheron",
      "esName": "acheron",
      "countries": "Sudan",
      "countryCdeA3": "SDN",
      "isoCdes": "acz",
      "dangerLevel": "Severely endangered",
      "nbSpeakers": 70000,
      "latitude": 10.809,
      "longitude": 30.2453
    },
    {
      "lanID": 702,
      "enName": "Maori",
      "frName": "maori",
      "esName": "maorí",
      "countries": "New Zealand",
      "countryCdeA3": "NZL",
      "isoCdes": "mri",
      "dangerLevel": "Vulnerable",
      "nbSpeakers": 70000,
      "latitude": -38.4105,
      "longitude": 177.3632
    },
    {
      "lanID": 2237,
      "enName": "Tai Neua",
      "frName": "tai nüa",
      "esName": "tainuá",
      "countries": "Lao People's Democratic Republic",
      "countryCdeA3": "LAO",
      "isoCdes": "tdd",
      "dangerLevel": "Vulnerable",
      "nbSpeakers": 70000,
      "latitude": 20.5166,
      "longitude": 104.3166
    },
    {
      "lanID": 1567,
      "enName": "Bhadravahi",
      "frName": "bhadravahi",
      "esName": "bhadri",
      "countries": "India, Pakistan",
      "countryCdeA3": "IND, PAK",
      "isoCdes": "bhd",
      "dangerLevel": "Definitely endangered",
      "nbSpeakers": 66918,
      "latitude": 33.5413,
      "longitude": 76.333
    },
    {
      "lanID": 1562,
      "enName": "Kinnauri",
      "frName": "kinnauri",
      "esName": "kinaurí",
      "countries": "India",
      "countryCdeA3": "IND",
      "isoCdes": "kns, kfk, cif, tpq",
      "dangerLevel": "Definitely endangered",
      "nbSpeakers": 65097,
      "latitude": 31.541,
      "longitude": 78.3764
    },
    {
      "lanID": 1330,
      "enName": "Gallo-Sicilian",
      "frName": "gallo-sicilien",
      "esName": "galo-siciliano",
      "countries": "Italy",
      "countryCdeA3": "ITA",
      "isoCdes": "lmo",
      "dangerLevel": "Definitely endangered",
      "nbSpeakers": 65000,
      "latitude": 38.0167,
      "longitude": 14.5994
    },
    {
      "lanID": 1594,
      "enName": "Kurux (Bangladesh)",
      "frName": "kurux (Bangladesh)",
      "esName": "kuruj (Bangladesh)",
      "countries": "Bangladesh",
      "countryCdeA3": "BGD",
      "isoCdes": "kru",
      "dangerLevel": "Vulnerable",
      "nbSpeakers": 65000,
      "latitude": 25.8196,
      "longitude": 88.9672
    },
    {
      "lanID": 1831,
      "enName": "Tz'utujil",
      "frName": "tz’utujil",
      "esName": "zutuguilés",
      "countries": "Guatemala",
      "countryCdeA3": "GTM",
      "isoCdes": "tzj, tzt",
      "dangerLevel": "Definitely endangered",
      "nbSpeakers": 63237,
      "latitude": 14.6394,
      "longitude": -91.2301
    },
    {
      "lanID": 2350,
      "enName": "Chamorro",
      "frName": "chamorro",
      "esName": "chamorro",
      "countries": "Guam (U.S.A.)",
      "countryCdeA3": "GUM",
      "isoCdes": "cha",
      "dangerLevel": "Vulnerable",
      "nbSpeakers": 62500,
      "latitude": 13.4323,
      "longitude": 144.7338
    },
    {
      "lanID": 741,
      "enName": "Ashaninka (Peru)",
      "frName": "ashaninka (Pérou)",
      "esName": "asháninca",
      "countries": "Peru",
      "countryCdeA3": "PER",
      "isoCdes": "cjo, cni, cpb, cpc, cpu, cpy, prq",
      "dangerLevel": "Vulnerable",
      "nbSpeakers": 62468,
      "latitude": -10.6929,
      "longitude": -74.3444
    },
    {
      "lanID": 1131,
      "enName": "Chang",
      "frName": "chang",
      "esName": "chang",
      "countries": "India",
      "countryCdeA3": "IND",
      "isoCdes": "nbc",
      "dangerLevel": "Vulnerable",
      "nbSpeakers": 62000,
      "latitude": 26.2934,
      "longitude": 94.9493
    },
    {
      "lanID": 1897,
      "enName": "Kuna (Panama)",
      "frName": "kuna (Panama)",
      "esName": "kuna (Panamá)",
      "countries": "Panama",
      "countryCdeA3": "PAN",
      "isoCdes": "kvn, cuk",
      "dangerLevel": "Vulnerable",
      "nbSpeakers": 61703,
      "latitude": 9.5983,
      "longitude": -79.6334
    },
    {
      "lanID": 1554,
      "enName": "Churahi",
      "frName": "churahi",
      "esName": "churahi",
      "countries": "India",
      "countryCdeA3": "IND",
      "isoCdes": "cdj",
      "dangerLevel": "Definitely endangered",
      "nbSpeakers": 61199,
      "latitude": 33.1835,
      "longitude": 76.5747
    },
    {
      "lanID": 1155,
      "enName": "Nruanghmei",
      "frName": "rongmei",
      "esName": "rongmei",
      "countries": "India",
      "countryCdeA3": "IND",
      "isoCdes": "nbu",
      "dangerLevel": "Vulnerable",
      "nbSpeakers": 61000,
      "latitude": 24.9661,
      "longitude": 93.5375
    },
    {
      "lanID": 1139,
      "enName": "Rengma",
      "frName": "Rengma",
      "esName": "rengma",
      "countries": "India",
      "countryCdeA3": "IND",
      "isoCdes": "nnl, nre",
      "dangerLevel": "Vulnerable",
      "nbSpeakers": 61000,
      "latitude": 25.958,
      "longitude": 94.2462
    },
    {
      "lanID": 1027,
      "enName": "Faroese",
      "frName": "féroïen",
      "esName": "faroés",
      "countries": "Faroe Islands",
      "countryCdeA3": "FRO",
      "isoCdes": "fao",
      "dangerLevel": "Vulnerable",
      "nbSpeakers": 60000,
      "latitude": 62.0112,
      "longitude": -6.7785
    },
    {
      "lanID": 2439,
      "enName": "Northern Tujia",
      "frName": "tujia du nord",
      "esName": "tujia septentrional",
      "countries": "China",
      "countryCdeA3": "CHN",
      "isoCdes": "tji",
      "dangerLevel": "Severely endangered",
      "nbSpeakers": 60000,
      "latitude": 28.828,
      "longitude": 109.5904
    },
    {
      "lanID": 2480,
      "enName": "Torwali",
      "frName": "torwali",
      "esName": "torvalí",
      "countries": "Pakistan",
      "countryCdeA3": "PAK",
      "isoCdes": "trw",
      "dangerLevel": "Definitely endangered",
      "nbSpeakers": 60000,
      "latitude": 35.5833,
      "longitude": 72.5
    },
    {
      "lanID": 1787,
      "enName": "Chuj (Guatemala)",
      "frName": "chuj (Guatemala)",
      "esName": "chuj (Guatemala)",
      "countries": "Guatemala",
      "countryCdeA3": "GTM",
      "isoCdes": "cnm, cac",
      "dangerLevel": "Vulnerable",
      "nbSpeakers": 59048,
      "latitude": 15.8259,
      "longitude": -91.4783
    },
    {
      "lanID": 1186,
      "enName": "Kachari",
      "frName": "kachari",
      "esName": "kachari",
      "countries": "India",
      "countryCdeA3": "IND",
      "isoCdes": "xac",
      "dangerLevel": "Definitely endangered",
      "nbSpeakers": 59000,
      "latitude": 25.2844,
      "longitude": 93.2189
    },
    {
      "lanID": 411,
      "enName": "Scottish Gaelic",
      "frName": "gaélique écossais",
      "esName": "gaélico escocés",
      "countries": "United Kingdom of Great Britain and Northern Ireland",
      "countryCdeA3": "GBR",
      "isoCdes": "gla",
      "dangerLevel": "Definitely endangered",
      "nbSpeakers": 58552,
      "latitude": 58.1011,
      "longitude": -6.7675
    },
    {
      "lanID": 1504,
      "enName": "Sierra de Puebla Náhuatl",
      "frName": "náhuatl de la Sierra de Puebla",
      "esName": "nahua de la sierra de Puebla",
      "countries": "Mexico",
      "countryCdeA3": "MEX",
      "isoCdes": "",
      "dangerLevel": "Definitely endangered",
      "nbSpeakers": 57189,
      "latitude": 19.6223,
      "longitude": -97.8149
    },
    {
      "lanID": 643,
      "enName": "Limonese Creole",
      "frName": "créole de Limón",
      "esName": "criollo limonense",
      "countries": "Costa Rica",
      "countryCdeA3": "CRI",
      "isoCdes": "",
      "dangerLevel": "Definitely endangered",
      "nbSpeakers": 55000,
      "latitude": 9.9916,
      "longitude": -83.0316
    },
    {
      "lanID": 370,
      "enName": "Kashubian",
      "frName": "kachoube",
      "esName": "casubio",
      "countries": "Poland",
      "countryCdeA3": "POL",
      "isoCdes": "csb",
      "dangerLevel": "Severely endangered",
      "nbSpeakers": 53000,
      "latitude": 54.2267,
      "longitude": 18.1713
    },
    {
      "lanID": 481,
      "enName": "Khakas",
      "frName": "khakasse",
      "esName": "jacaso",
      "countries": "Russian Federation",
      "countryCdeA3": "RUS",
      "isoCdes": "kjh",
      "dangerLevel": "Definitely endangered",
      "nbSpeakers": 52217,
      "latitude": 53.7746,
      "longitude": 90.3735
    },
    {
      "lanID": 1587,
      "enName": "Parji",
      "frName": "parji",
      "esName": "duruwa",
      "countries": "India",
      "countryCdeA3": "IND",
      "isoCdes": "pci",
      "dangerLevel": "Critically endangered",
      "nbSpeakers": 51216,
      "latitude": 18.5629,
      "longitude": 82.8039
    },
    {
      "lanID": 1352,
      "enName": "Arvanitika",
      "frName": "arvanitika",
      "esName": "arvanitika",
      "countries": "Greece",
      "countryCdeA3": "GRC",
      "isoCdes": "aat",
      "dangerLevel": "Severely endangered",
      "nbSpeakers": 50000,
      "latitude": 38.1863,
      "longitude": 23.6096
    },
    {
      "lanID": 507,
      "enName": "Buryat (Cis-Baikal)",
      "frName": "bouriate (Cis-Baïkalie)",
      "esName": "buriato (cisbaikálico)",
      "countries": "Russian Federation",
      "countryCdeA3": "RUS",
      "isoCdes": "bxm, bxr, bxu",
      "dangerLevel": "Severely endangered",
      "nbSpeakers": 50000,
      "latitude": 52.7961,
      "longitude": 104.8809
    },
    {
      "lanID": 458,
      "enName": "Buryat (Manchuria)",
      "frName": "bouriate (Mandchourie)",
      "esName": "buriato (Manchuria)",
      "countries": "China, Mongolia",
      "countryCdeA3": "CHN, MNG",
      "isoCdes": "bxm, bxr, bxu",
      "dangerLevel": "Definitely endangered",
      "nbSpeakers": 50000,
      "latitude": 49.8096,
      "longitude": 119.7509
    },
    {
      "lanID": 2261,
      "enName": "Cuona Menba",
      "frName": "cuona menba",
      "esName": "monpa de Cuona",
      "countries": "Bhutan, China, India",
      "countryCdeA3": "BTN, CHN, IND",
      "isoCdes": "twm",
      "dangerLevel": "Vulnerable",
      "nbSpeakers": 50000,
      "latitude": 26.8279,
      "longitude": 95.3623
    },
    {
      "lanID": 2229,
      "enName": "Eastern Cham",
      "frName": "cham de l'est",
      "esName": "chamo oriental",
      "countries": "Viet Nam",
      "countryCdeA3": "VNM",
      "isoCdes": "cjm",
      "dangerLevel": "Definitely endangered",
      "nbSpeakers": 50000,
      "latitude": 10.7833,
      "longitude": 108.0833
    },
    {
      "lanID": 1232,
      "enName": "Hmar",
      "frName": "hmar",
      "esName": "hmar",
      "countries": "India",
      "countryCdeA3": "IND",
      "isoCdes": "hmr",
      "dangerLevel": "Vulnerable",
      "nbSpeakers": 50000,
      "latitude": 24.577,
      "longitude": 93.3178
    },
    {
      "lanID": 1422,
      "enName": "Huzhu Monguor",
      "frName": "monguor de Huzhu",
      "esName": "monguor de Huzhu",
      "countries": "China",
      "countryCdeA3": "CHN",
      "isoCdes": "mjg",
      "dangerLevel": "Severely endangered",
      "nbSpeakers": 50000,
      "latitude": 36.7608,
      "longitude": 102.4255
    },
    {
      "lanID": 1159,
      "enName": "Paite",
      "frName": "paite",
      "esName": "chin paite",
      "countries": "India",
      "countryCdeA3": "IND",
      "isoCdes": "pck, smt",
      "dangerLevel": "Vulnerable",
      "nbSpeakers": 50000,
      "latitude": 24.1968,
      "longitude": 93.3563
    },
    {
      "lanID": 1929,
      "enName": "Quichua (Imbabura)",
      "frName": "quichua (Imbabura)",
      "esName": "quichua (Imbabura)",
      "countries": "Ecuador",
      "countryCdeA3": "ECU",
      "isoCdes": "qxr, qug, qvi, qvj, qvo, qvz, qxl",
      "dangerLevel": "Definitely endangered",
      "nbSpeakers": 50000,
      "latitude": 0.1757,
      "longitude": -78.2006
    },
    {
      "lanID": 1949,
      "enName": "Soqotri",
      "frName": "soqotri",
      "esName": "soqotrí",
      "countries": "Yemen",
      "countryCdeA3": "YEM",
      "isoCdes": "sqt",
      "dangerLevel": "Severely endangered",
      "nbSpeakers": 50000,
      "latitude": 12.5331,
      "longitude": 53.767
    },
    {
      "lanID": 462,
      "enName": "Southern Altay",
      "frName": "altaï méridional",
      "esName": "altái meridional",
      "countries": "Russian Federation",
      "countryCdeA3": "RUS",
      "isoCdes": "alt",
      "dangerLevel": "Definitely endangered",
      "nbSpeakers": 50000,
      "latitude": 51.069,
      "longitude": 86.5942
    },
    {
      "lanID": 1475,
      "enName": "Transylvanian Saxon",
      "frName": "saxon transylvanien",
      "esName": "sajón de Transilvania",
      "countries": "Romania",
      "countryCdeA3": "ROU",
      "isoCdes": "",
      "dangerLevel": "Severely endangered",
      "nbSpeakers": 50000,
      "latitude": 46.214,
      "longitude": 24.2413
    },
    {
      "lanID": 1986,
      "enName": "Turoyo",
      "frName": "touroyo",
      "esName": "turoyo",
      "countries": "Syrian Arab Republic, Turkey",
      "countryCdeA3": "SYR, TUR",
      "isoCdes": "tru",
      "dangerLevel": "Severely endangered",
      "nbSpeakers": 50000,
      "latitude": 37.405,
      "longitude": 41.3745
    },
    {
      "lanID": 422,
      "enName": "Võro-Seto",
      "frName": "võro-seto",
      "esName": "vorû setu",
      "countries": "Estonia, Russian Federation",
      "countryCdeA3": "EST, RUS",
      "isoCdes": "est",
      "dangerLevel": "Definitely endangered",
      "nbSpeakers": 50000,
      "latitude": 57.8096,
      "longitude": 27.29
    },
    {
      "lanID": 687,
      "enName": "West Greenlandic",
      "frName": "kalaallisut",
      "esName": "groenlandés occidental",
      "countries": "Greenland (Kingdom of Denmark)",
      "countryCdeA3": "GRL",
      "isoCdes": "kal",
      "dangerLevel": "Vulnerable",
      "nbSpeakers": 50000,
      "latitude": 64.1681,
      "longitude": -51.7236
    },
    {
      "lanID": 1494,
      "enName": "Western Armenian (Turkey)",
      "frName": "arménien occidental (Turquie)",
      "esName": "armenio occidental (Turquía)",
      "countries": "Turkey",
      "countryCdeA3": "TUR",
      "isoCdes": "hye",
      "dangerLevel": "Definitely endangered",
      "nbSpeakers": 50000,
      "latitude": 41.0213,
      "longitude": 28.9324
    },
    {
      "lanID": 122,
      "enName": "Zaramo",
      "frName": "zaramo",
      "esName": "zalamo / saramo",
      "countries": "United Republic of Tanzania",
      "countryCdeA3": "TZA",
      "isoCdes": "zaj",
      "dangerLevel": "Definitely endangered",
      "nbSpeakers": 50000,
      "latitude": -6.922,
      "longitude": 39.2409
    },
    {
      "lanID": 2180,
      "enName": "Zenatiya",
      "frName": "zenatiya",
      "esName": "zenatiya",
      "countries": "Algeria",
      "countryCdeA3": "DZA",
      "isoCdes": "",
      "dangerLevel": "Critically endangered",
      "nbSpeakers": 50000,
      "latitude": 35.5702,
      "longitude": 1.8099
    },
    {
      "lanID": 915,
      "enName": "Papantla Totonac",
      "frName": "totonaque de Papantla",
      "esName": "totonaco papantla",
      "countries": "Mexico",
      "countryCdeA3": "MEX",
      "isoCdes": "top",
      "dangerLevel": "Definitely endangered",
      "nbSpeakers": 49748,
      "latitude": 20.4477,
      "longitude": -97.32
    },
    {
      "lanID": 1108,
      "enName": "Wancho",
      "frName": "wancho",
      "esName": "wancho",
      "countries": "India",
      "countryCdeA3": "IND",
      "isoCdes": "nnp",
      "dangerLevel": "Vulnerable",
      "nbSpeakers": 49000,
      "latitude": 26.9759,
      "longitude": 95.4656
    },
    {
      "lanID": 1213,
      "enName": "Bhumji",
      "frName": "bhumji",
      "esName": "bhumji",
      "countries": "India",
      "countryCdeA3": "IND",
      "isoCdes": "bij",
      "dangerLevel": "Vulnerable",
      "nbSpeakers": 47000,
      "latitude": 21.8003,
      "longitude": 86.8139
    },
    {
      "lanID": 2241,
      "enName": "Cosung (China)",
      "frName": "cosung (Chine)",
      "esName": "cosung (China)",
      "countries": "China",
      "countryCdeA3": "CHN",
      "isoCdes": "lkc",
      "dangerLevel": "Definitely endangered",
      "nbSpeakers": 47000,
      "latitude": 22.6833,
      "longitude": 102.6666
    },
    {
      "lanID": 2240,
      "enName": "Cosung (Viet Nam)",
      "frName": "cosung (kucong)",
      "esName": "cosung (Vietnam)",
      "countries": "Viet Nam",
      "countryCdeA3": "VNM",
      "isoCdes": "lkc",
      "dangerLevel": "Definitely endangered",
      "nbSpeakers": 47000,
      "latitude": 22.6166,
      "longitude": 102.75
    },
    {
      "lanID": 2249,
      "enName": "Baheng (China)",
      "frName": "baheng (Chine)",
      "esName": "baheng (China)",
      "countries": "China",
      "countryCdeA3": "CHN",
      "isoCdes": "pha",
      "dangerLevel": "Vulnerable",
      "nbSpeakers": 45000,
      "latitude": 26.19,
      "longitude": 110.24
    },
    {
      "lanID": 60,
      "enName": "Lumun",
      "frName": "lumun",
      "esName": "lomón",
      "countries": "Sudan",
      "countryCdeA3": "SDN",
      "isoCdes": "lmd",
      "dangerLevel": "Definitely endangered",
      "nbSpeakers": 45000,
      "latitude": 10.8387,
      "longitude": 30.0338
    },
    {
      "lanID": 1931,
      "enName": "Quichua (Loja)",
      "frName": "quichua (Loja)",
      "esName": "quichua (Loja)",
      "countries": "Ecuador",
      "countryCdeA3": "ECU",
      "isoCdes": "qxr, qug, qvi, qvj, qvo, qvz, qxl",
      "dangerLevel": "Severely endangered",
      "nbSpeakers": 45000,
      "latitude": -3.6236,
      "longitude": -79.2388
    },
    {
      "lanID": 1025,
      "enName": "Chamling",
      "frName": "chamling",
      "esName": "chamlingo",
      "countries": "Nepal",
      "countryCdeA3": "NPL",
      "isoCdes": "rab",
      "dangerLevel": "Definitely endangered",
      "nbSpeakers": 44093,
      "latitude": 27.0499,
      "longitude": 86.7329
    },
    {
      "lanID": 362,
      "enName": "Irish",
      "frName": "irlandais",
      "esName": "irlandés",
      "countries": "Ireland, United Kingdom of Great Britain and Northern Ireland",
      "countryCdeA3": "IRL, GBR",
      "isoCdes": "gle",
      "dangerLevel": "Definitely endangered",
      "nbSpeakers": 44000,
      "latitude": 53.7876,
      "longitude": -9.1845
    },
    {
      "lanID": 1329,
      "enName": "Reshe",
      "frName": "reshe",
      "esName": "reshe",
      "countries": "Nigeria",
      "countryCdeA3": "NGA",
      "isoCdes": "res",
      "dangerLevel": "Vulnerable",
      "nbSpeakers": 44000,
      "latitude": 10.8791,
      "longitude": 4.6115
    },
    {
      "lanID": 927,
      "enName": "Sierra Otomí",
      "frName": "otomí de la Sierra",
      "esName": "otomí de la Sierra",
      "countries": "Mexico",
      "countryCdeA3": "MEX",
      "isoCdes": "otm",
      "dangerLevel": "Vulnerable",
      "nbSpeakers": 43468,
      "latitude": 20.1021,
      "longitude": -97.622
    },
    {
      "lanID": 134,
      "enName": "Phuthi",
      "frName": "phuthi",
      "esName": "suací",
      "countries": "Lesotho",
      "countryCdeA3": "LSO",
      "isoCdes": "ssw",
      "dangerLevel": "Definitely endangered",
      "nbSpeakers": 43000,
      "latitude": -29.3791,
      "longitude": 28.2838
    },
    {
      "lanID": 704,
      "enName": "Rarotongan",
      "frName": "rarotongien",
      "esName": "rarotongano",
      "countries": "Cook Islands",
      "countryCdeA3": "COK",
      "isoCdes": "rar",
      "dangerLevel": "Vulnerable",
      "nbSpeakers": 43000,
      "latitude": -21.2343,
      "longitude": -159.7837
    },
    {
      "lanID": 1804,
      "enName": "Khalaj",
      "frName": "khalaj",
      "esName": "jalái",
      "countries": "Iran (Islamic Republic of)",
      "countryCdeA3": "IRN",
      "isoCdes": "klj",
      "dangerLevel": "Vulnerable",
      "nbSpeakers": 42100,
      "latitude": 34.3751,
      "longitude": 50.3063
    },
    {
      "lanID": 1670,
      "enName": "Dungan",
      "frName": "doungane",
      "esName": "dungano",
      "countries": "Kazakhstan, Kyrgyzstan",
      "countryCdeA3": "KAZ, KGZ",
      "isoCdes": "dng",
      "dangerLevel": "Definitely endangered",
      "nbSpeakers": 41000,
      "latitude": 42.4518,
      "longitude": 78.4643
    },
    {
      "lanID": 1143,
      "enName": "Kheza",
      "frName": "kheza",
      "esName": "khezha",
      "countries": "India",
      "countryCdeA3": "IND",
      "isoCdes": "nkh",
      "dangerLevel": "Vulnerable",
      "nbSpeakers": 41000,
      "latitude": 25.6811,
      "longitude": 94.367
    },
    {
      "lanID": 1304,
      "enName": "Jola-Kassa",
      "frName": "jola-kassa",
      "esName": "kasa",
      "countries": "Senegal",
      "countryCdeA3": "SEN",
      "isoCdes": "csk",
      "dangerLevel": "Vulnerable",
      "nbSpeakers": 40850,
      "latitude": 13.1089,
      "longitude": -15.8999
    },
    {
      "lanID": 1447,
      "enName": "Satār",
      "frName": "satār",
      "esName": "satar",
      "countries": "Nepal",
      "countryCdeA3": "NPL",
      "isoCdes": "sat",
      "dangerLevel": "Vulnerable",
      "nbSpeakers": 40260,
      "latitude": 26.5541,
      "longitude": 87.918
    },
    {
      "lanID": 1927,
      "enName": "Guaraní Boliviano",
      "frName": "guarani de Bolivie",
      "esName": "guaraní boliviano",
      "countries": "Argentina, Bolivia (Plurinational State of)",
      "countryCdeA3": "ARG, BOL",
      "isoCdes": "gnw, gui",
      "dangerLevel": "Vulnerable",
      "nbSpeakers": 40000,
      "latitude": -20.1694,
      "longitude": -63.8525
    },
    {
      "lanID": 1208,
      "enName": "Gutob",
      "frName": "goutob",
      "esName": "gutob",
      "countries": "India",
      "countryCdeA3": "IND",
      "isoCdes": "gbj",
      "dangerLevel": "Vulnerable",
      "nbSpeakers": 40000,
      "latitude": 18.7086,
      "longitude": 83.5839
    },
    {
      "lanID": 1247,
      "enName": "Kheng",
      "frName": "khengkha",
      "esName": "kheng",
      "countries": "Bhutan",
      "countryCdeA3": "BTN",
      "isoCdes": "xkf",
      "dangerLevel": "Vulnerable",
      "nbSpeakers": 40000,
      "latitude": 27.0786,
      "longitude": 91.0272
    },
    {
      "lanID": 70,
      "enName": "Laro",
      "frName": "Laru",
      "esName": "laro",
      "countries": "Sudan",
      "countryCdeA3": "SDN",
      "isoCdes": "lro",
      "dangerLevel": "Definitely endangered",
      "nbSpeakers": 40000,
      "latitude": 10.7685,
      "longitude": 29.902
    },
    {
      "lanID": 986,
      "enName": "Minyong",
      "frName": "minyong",
      "esName": "minyong",
      "countries": "India",
      "countryCdeA3": "IND",
      "isoCdes": "adi",
      "dangerLevel": "Vulnerable",
      "nbSpeakers": 40000,
      "latitude": 28.2632,
      "longitude": 95.0537
    },
    {
      "lanID": 1137,
      "enName": "Mru",
      "frName": "mru",
      "esName": "mru",
      "countries": "Myanmar",
      "countryCdeA3": "MMR",
      "isoCdes": "mro",
      "dangerLevel": "Severely endangered",
      "nbSpeakers": 40000,
      "latitude": 21.7748,
      "longitude": 92.2741
    },
    {
      "lanID": 149,
      "enName": "Patani Malay",
      "frName": "malais de patani",
      "esName": "patani",
      "countries": "Thailand",
      "countryCdeA3": "THA",
      "isoCdes": "",
      "dangerLevel": "Vulnerable",
      "nbSpeakers": 40000,
      "latitude": 6.6482,
      "longitude": 100.0387
    },
    {
      "lanID": 998,
      "enName": "Quechua of Cajatambo, Pasco and northern Junín",
      "frName": "quehcua de Cajatambo Pasco et du Junín nord",
      "esName": "quechua de Cajatambo, de Paso y de Junín septentrional.",
      "countries": "Peru",
      "countryCdeA3": "PER",
      "isoCdes": "qvn, qvr, qva, qxa, qxt, qxh, qvl",
      "dangerLevel": "Severely endangered",
      "nbSpeakers": 40000,
      "latitude": -10.6147,
      "longitude": -76.506
    },
    {
      "lanID": 1275,
      "enName": "Quichua (Napo)",
      "frName": "quichua (Napo)",
      "esName": "quichua (Napo)",
      "countries": "Ecuador",
      "countryCdeA3": "ECU",
      "isoCdes": "qxr, qug, qvi, qvj, qvo, qvz, qxl",
      "dangerLevel": "Definitely endangered",
      "nbSpeakers": 40000,
      "latitude": -0.6371,
      "longitude": -77.1459
    },
    {
      "lanID": 1104,
      "enName": "Tangsa",
      "frName": "tangsa",
      "esName": "tangsa",
      "countries": "India",
      "countryCdeA3": "IND",
      "isoCdes": "nst",
      "dangerLevel": "Vulnerable",
      "nbSpeakers": 40000,
      "latitude": 27.4059,
      "longitude": 96.427
    },
    {
      "lanID": 2210,
      "enName": "Tetserret",
      "frName": "tetserret",
      "esName": "tetserret",
      "countries": "Niger",
      "countryCdeA3": "NER",
      "isoCdes": "",
      "dangerLevel": "Severely endangered",
      "nbSpeakers": 40000,
      "latitude": 15.4907,
      "longitude": 6.2072
    },
    {
      "lanID": 734,
      "enName": "Awajun",
      "frName": "awajun",
      "esName": "aguaruna",
      "countries": "Peru",
      "countryCdeA3": "PER",
      "isoCdes": "agr",
      "dangerLevel": "Vulnerable",
      "nbSpeakers": 39000,
      "latitude": -4.3464,
      "longitude": -77.8271
    },